,YEARMONTH,EPISODE_ID,EVENT_ID,LOCATION_INDEX,RANGE,AZIMUTH,LOCATION,LATITUDE,LONGITUDE,LAT2,LON2
0,201603,102667,615187,1,2.82,SSE,ANTIOCH,34.68,-97.4,3440800,9724000
1,201603,102667,615188,1,1.84,WSW,SCULLIN,34.51,-96.89,3430600,9653400
2,201603,102667,615189,1,0.0,N,CONNERVILLE,34.45,-96.63,3427000,9637800
3,201603,102667,615190,1,0.0,N,ATOKA,34.38,-96.13,3422800,967800
4,201603,102693,625566,1,3.0,ESE,GASTON,45.4134,-123.0729,4524804,1234374
5,201603,102693,625566,2,5.0,SW,BEAVERTON,45.4288,-122.89299999999999,4525728,12253580
6,201603,102693,625567,1,0.0,N,NEHALEM,45.72,-123.9,4543200,12354000
7,201603,102693,625567,2,0.5,E,NEHALEM,45.72,-123.8896,4543200,12353376
8,201603,102738,613936,1,0.91,SSW,OLLA,31.8872,-92.2332,3153232,9213992
9,201603,102739,613937,1,0.86,NW,BOUGHTON,33.8588,-93.3407,3351528,9320442
10,201603,102747,613991,1,5.03,S,METHOW,48.0776,-120.0117,484656,120702
11,201603,102747,613991,2,5.0,S,METHOW,48.0781,-120.0109,484686,120654
12,201603,102747,613991,3,5.04,S,METHOW,48.0773,-120.01,484638,120600
13,201603,102747,613991,4,5.06,S,METHOW,48.0772,-120.0109,484632,120654
14,201603,102747,613992,1,10.43,ESE,TORBOY,48.6043,-118.4724,4836258,11828344
15,201603,102747,613992,2,10.37,ESE,TORBOY,48.6064,-118.4721,4836384,11828326
16,201603,102747,613992,3,10.44,ESE,TORBOY,48.6055,-118.4712,4836330,11828272
17,201603,102747,613992,4,10.46,ESE,TORBOY,48.6045,-118.4715,4836270,11828290
18,201603,102747,614029,1,0.59,SSW,EVANS,48.7119,-118.0239,4842714,1181434
19,201603,102747,614029,2,0.54,S,EVANS,48.7122,-118.0218,4842732,1181308
20,201603,102747,614029,3,0.58,S,EVANS,48.7117,-118.022,4842702,1181320
21,201603,102747,614029,4,0.6,SSW,EVANS,48.7115,-118.0228,4842690,1181368
22,201603,102747,614303,1,0.76,NW,WEST WENATCHEE,47.438,-120.3412,4726280,12020472
23,201603,102747,614303,2,0.77,NW,WEST WENATCHEE,47.4379,-120.3416,4726274,12020496
24,201603,102747,614303,3,0.75,NW,WEST WENATCHEE,47.4378,-120.3412,4726268,12020472
25,201603,102747,614303,4,0.75,NW,WEST WENATCHEE,47.438,-120.3409,4726280,12020454
26,201603,102762,614164,1,2.06,NNE,HELENVILLE,43.0481,-88.6865,432886,8841190
27,201605,104199,626585,1,0.88,SE,VINE GROVE,37.79,-85.97,3747400,8558200
28,201605,104199,626586,1,1.49,NNE,SAMUELS,37.9,-85.52,3754000,8531200
29,201605,104199,626587,1,0.0,N,ELIZABETH TOWN,37.7,-85.87,3742000,8552200
30,201605,104199,626588,1,0.69,N,VINE GROVE,37.81,-85.98,3748600,8558800
31,201605,104199,626589,1,0.88,SW,ST CATHERINE,37.69,-85.26,3741400,8515600
32,201605,104199,626590,1,0.0,N,HARNED,37.75,-86.42,3745000,8625200
33,201605,104199,626591,1,0.69,N,WILLISBURG,37.81,-85.12,3748600,857200
34,201605,104199,626592,1,0.0,N,VERSAILLES,38.05,-84.73,383000,8443800
35,201605,104199,626593,1,2.15,NE,HARTFORD,37.47,-86.89,3728200,8653400
36,201605,104199,626594,1,0.55,E,STANFORD,37.53,-84.66,3731800,8439600
37,201605,104199,626595,1,1.3,ENE,DIVIDING RIDGE,37.34,-85.9,3720400,8554000
38,201605,104199,626596,1,2.76,N,STEWART,37.72,-85.0,3743200,8500
39,201605,104199,626597,1,1.49,NNE,SAMUELS,37.9,-85.52,3754000,8531200
40,201605,104199,626598,1,0.0,N,HARDINSBURG ARPT,37.78,-86.45,3746800,8627000
41,201605,104199,626599,1,0.55,W,ELLMITCH,37.63,-86.71,3737800,8642600
42,201605,104199,626600,1,3.5,S,JACKTOWN,37.4,-85.01,3724000,85600
43,201605,104199,626602,1,0.55,E,STANFORD,37.53,-84.66,3731800,8439600
44,201605,104199,626603,1,2.15,NW,HALLS GAP,37.49,-84.66,3729400,8439600
45,201605,104199,626604,1,1.49,NNE,STANFORD,37.55,-84.66,3733000,8439600
46,201605,104199,626605,1,1.09,W,STRINGTOWN,37.77,-84.85,3746200,8451000
47,201605,104199,626605,2,0.62,NE,HARRODSBURG,37.757,-84.84299999999999,3745420,8450580
48,201605,104199,626605,3,0.5,S,STRINGTOWN,37.7629,-84.8318,3745774,8449908
49,201605,104199,626605,4,0.65,WNW,STRINGTOWN,37.7724,-84.8416,3746344,8450496
50,201605,104199,626606,1,0.0,N,LEBANON JCT,37.83,-85.73,3749800,8543800
51,201605,104199,626607,1,0.0,N,RICHMOND,37.75,-84.3,3745000,8418000
52,201605,104199,626608,1,0.88,NE,WACO,37.74,-84.14,3744400,848400
53,201605,106243,637999,1,1.05,SSE,PENSACOLA BAY,30.3659,-87.2136,3021954,8712816
54,201605,106243,638000,1,3.74,E,ORANGE BEACH,30.2997,-87.5084,3017982,8730504
55,201605,106243,638001,1,2.97,SSE,SHALIMAR,30.4004,-86.5605,3024024,8633630
56,201605,106243,638002,1,0.2,WNW,OKALOOSA PIER,30.391,-86.5932,3023460,8635592
57,201605,106244,638012,1,0.91,SE,ATMORE,31.02,-87.49,311200,8729400
58,201605,106244,638014,1,1.37,ESE,BUCKS,31.01,-88.03,31600,881800
59,201605,106246,638016,1,0.0,N,COTTAGE HILL,30.63,-87.32,3037800,8719200
60,201605,106292,638305,1,3.67,SW,LEBANON,43.0589,-96.416,433534,9624960
61,201605,106292,638305,2,4.07,N,HAWARDEN,43.0589,-96.4722,433534,9628332
62,201605,106292,638305,3,3.8,NW,HAWARDEN,43.0409,-96.5204,432454,9631224
63,201605,106292,638305,4,2.85,WSW,CHATSWORTH,42.9011,-96.55,4254066,9633000
64,201605,106292,638305,5,1.34,SSW,CHATSWORTH,42.9011,-96.5061,4254066,9630366
65,201605,106292,638307,1,6.0,N,AKRON,42.9168,-96.55,4255008,9633000
66,201605,106292,638307,2,6.0,NNE,AKRON,42.9102,-96.5047,4254612,9630282
67,201605,106292,638307,3,0.24,E,WESTFIELD,42.7498,-96.5953,4244988,9635718
68,201605,106292,638307,4,7.25,WSW,JAMES,42.5256,-96.4418,4231536,9626508
69,201605,106292,638307,5,8.35,S,MILLNERVILLE,42.5608,-96.5271,4233648,9631626
70,201605,106292,638307,6,3.13,W,WESTFIELD,42.7482,-96.6616,4244892,9639696
71,201605,106293,638306,1,3.36,SE,GOSHEN,39.92,-111.85,3955200,11151000
72,201605,106293,638308,1,7.09,NNE,CHAMPLIN SIDING,39.68,-112.29,3940800,11217400
73,201605,106298,638318,1,8.0,ENE,ALCESTER,43.0643,-96.5036,433858,9630216
74,201605,106298,638318,2,5.69,ESE,RICHLAND,42.7452,-96.5231,4244712,9631386
75,201605,106298,638318,3,0.0,N,NORTH SIOUX CITY,42.52,-96.48,4231200,9628800
76,201605,106298,638318,4,3.0,S,JEFFERSON,42.5566,-96.55,4233396,9633000
77,201605,106298,638318,5,1.0,W,ELK PT,42.68,-96.6897,4240800,9641382
78,201605,106300,638320,1,81.26,W,MONETA,43.0859,-97.0098,435154,97588
79,201605,106300,638320,2,83.32,W,MONETA,43.0022,-97.0413,43132,972478
80,201605,106300,638320,3,79.07,W,MONETA,42.9091,-96.9359,4254546,9656154
81,201605,106300,638320,4,75.17,WSW,MONETA,42.9099,-96.8573,4254594,9651438
82,201605,106300,638320,5,78.04,W,MONETA,43.0863,-96.9459,435178,9656754
83,201605,106302,639738,1,15.43,SSW,ARINOSA,40.52,-113.75,4031200,11345000
84,201605,106302,639739,1,2.94,NE,UINTAH,41.2,-111.88,4112000,11152800
85,201605,106302,639740,1,0.53,W,VERNON MUNI ARPT,40.1,-112.43,406000,11225800
86,201605,106302,639741,1,0.0,N,TREMONTON MUNI ARPT,41.72,-112.18,4143200,11210800
87,201605,106302,639741,2,11.84,SSW,SALINE,41.07,-112.59,414200,11235400
88,201605,106302,640356,1,9.41,WNW,(DPG)MICHAEL AAF DUG,40.24,-113.09,4014400,1135400
89,201605,106302,640356,2,1.74,SE,DUGWAY,40.23,-112.73,4013800,11243800
90,201605,106311,638359,1,0.0,N,BLACKSTOCK,34.57,-81.15,3434200,819000
91,201605,106312,638361,1,1.79,NW,HOODS,35.15,-80.72,359000,8043200
92,201605,106312,638362,1,2.15,SSE,STONEHAVEN,35.14,-80.76,358400,8045600
93,201605,106312,638363,1,2.15,SSE,INDIAN TRAIL ARPT,35.09,-80.57,355400,8034200
94,201605,106312,638364,1,0.69,N,INDIAN TRAIL,35.09,-80.68,355400,8040800
95,201605,106312,638365,1,3.49,SW,BURKE CHAPEL,35.64,-81.52,3538400,8131200
96,201605,106312,638366,1,1.12,E,PLEASANT GROVE BRKE,35.63,-81.58,3537800,8134800
97,201605,106312,638367,1,3.64,WSW,PROPST XRDS,35.61,-81.44,3536600,8126400
98,201605,106312,638368,1,0.0,N,PROPST XRDS,35.63,-81.38,3537800,8122800
99,201605,106312,638368,2,2.36,NNE,PROPST XRDS,35.66,-81.36,3539600,8121600
100,201605,106312,638369,1,0.89,SE,DRUMS XRDS,35.61,-81.11,3536600,816600
101,201605,106312,638369,2,0.69,N,TERRELL,35.59,-80.98,3535400,8058800
102,201605,106312,638370,1,0.0,N,COTTON FACTORY,35.58,-81.2,3534800,8112000
103,201605,106312,638370,2,0.89,NE,DUAN,35.63,-81.19,3537800,8111400
104,201605,106312,638372,1,2.35,WSW,MOORESVILLE JCT,35.59,-80.86,3535400,8051600
105,201605,106312,638372,2,0.89,SW,MOORESVILLE JCT,35.59,-80.83,3535400,8049800
106,201605,106312,638373,1,3.45,S,MILL BRIDGE,35.6,-80.65,3536000,8039000
107,201605,106312,638373,2,0.89,SE,MILL BRIDGE,35.64,-80.64,3538400,8038400
108,201605,106312,638374,1,1.12,E,FRANKLIN,35.72,-80.48,3543200,8028800
109,201605,106312,638728,1,1.12,W,LIBERTY,35.58,-80.37,3534800,8022200
110,201605,106312,638728,2,1.82,ENE,LIBERTY,35.59,-80.32,3535400,8019200
111,201605,106312,639218,1,6.22,W,PLATEAU,35.59,-81.48,3535400,8128800
112,201605,106281,639598,1,1.87,NNW,(FCH) CHANDLER AF,36.7561,-119.8285,3645366,11949710
113,201605,106281,639604,1,5.25,NE,FORD CITY,35.2047,-119.4055,3512282,11924330
114,201605,106281,639608,1,7.92,SSW,MARICOPA,34.961999999999996,-119.447,3457720,11926820
115,201605,106281,639617,1,0.59,S,CIMARRON,36.2915,-119.7811,3617490,11946866
116,201605,106281,639621,1,7.77,W,SANTA NELLA,37.1018,-121.1383,376108,1218298
117,201605,106281,639625,1,5.61,W,SANTA NELLA,37.0831,-121.1018,374986,1216108
118,201605,106281,639641,1,1.32,S,PANOCHE JCT,36.5311,-120.4829,3631866,12028974
119,201605,106281,639655,1,2.25,NW,CALWA,36.7067,-119.7732,3642402,11946392
120,201605,106289,638274,1,0.73,NW,MONTGOMERY,43.437,-95.211,4326220,9512660
121,201605,106289,638274,2,1.51,E,TRIBOJI BEACH,43.4313,-95.15,4325878,959000
122,201605,106289,638274,3,7.0,SSE,FULLER FLD ARPT,43.2364,-95.0967,4314184,955802
123,201605,106289,638274,4,8.0,S,FULLER FLD ARPT,43.2142,-95.15,4312852,959000
124,201605,106289,638275,1,5.71,NNW,EVERLY,43.25,-95.3588,4315000,9521528
125,201605,106289,638275,2,5.0,W,FOSTORIA,43.25,-95.2694,4315000,9516164
126,201605,106289,638275,3,3.96,NNE,WEBB,42.9979,-94.9569,4259874,9457414
127,201605,106289,638275,4,2.0,WSW,GILLETT GROVE,43.0089,-95.0666,43534,953996
128,201605,106289,638282,1,0.0,N,LINN GROVE,42.88,-95.25,4252800,9515000
129,201605,106289,638282,2,5.0,W,LINN GROVE,42.88,-95.3488,4252800,9520928
130,201605,106289,638282,3,5.0,WNW,LINN GROVE,42.9077,-95.3413,4254462,9520478
131,201605,106289,638282,4,1.5,N,LINN GROVE,42.9017,-95.25,4254102,9515000
132,201605,106289,638285,1,10.0,ENE,LARRABEE,42.9254,-95.3475,4255524,9520850
133,201605,106289,638285,2,1.0,E,QUIMBY,42.63,-95.6103,4237800,9536618
134,201605,106289,638285,3,1.0,W,QUIMBY,42.63,-95.6497,4237800,9538982
135,201605,106289,638285,4,4.0,NE,LARRABEE,42.9109,-95.4741,4254654,9528446
136,201605,106291,638288,1,0.87,NW,MEOLA,40.44,-110.04,4026400,1102400
137,201605,106291,638289,1,1.38,S,WEST PT,41.1,-112.08,416000,1124800
138,201605,106291,638292,1,0.0,N,HOLLADAY,40.67,-111.82,4040200,11149200
139,201605,106291,638293,1,1.04,W,ROY,41.17,-112.04,4110200,1122400
140,201605,106291,638295,1,4.19,NW,GRANTSVILLE,40.64,-112.53,4038400,11231800
141,201605,106291,638296,1,7.67,N,LAKESIDE,41.33,-112.86,4119800,11251600
142,201605,106291,638297,1,17.97,S,(DPG)MICHAEL AAF DUG,39.92,-112.94,3955200,11256400
143,201605,106291,638298,1,4.64,NNW,(SLC)SALT LAKE CITY,40.84,-112.01,4050400,112600
144,201605,106291,638299,1,8.06,SSW,LITTLE MTN,41.15,-112.33,419000,11219800
145,201603,102762,614166,1,3.09,ENE,KOHLSVILLE,43.4844,-88.2618,4329064,8815708
146,201603,102762,614974,1,0.0,N,SPRING GREEN,43.18,-90.07,4310800,904200
147,201603,102762,614975,1,7.0,NNW,MT CALVARY,43.9136,-88.3038,4354816,8818228
148,201603,102762,614976,1,4.0,WNW,MT CALVARY,43.8422,-88.3241,4350532,8819446
149,201603,102787,614302,1,1.22,SE,BONNERS FERRY,48.68899999999999,-116.2991,4841340,11617946
150,201603,102787,614302,2,1.18,SE,BONNERS FERRY,48.6881,-116.3013,4841286,11618078
151,201603,102787,614302,3,1.4,SE,BONNERS FERRY,48.6857,-116.2984,4841142,11617904
152,201603,102787,614302,4,1.44,SE,BONNERS FERRY,48.6873,-116.2948,4841238,11617688
153,201603,102838,614546,1,0.0,N,EAST WENATCHEE,47.42,-120.28,4725200,12016800
154,201603,102838,614546,2,0.02,S,EAST WENATCHEE,47.4197,-120.28,4725182,12016800
155,201603,102838,614546,3,0.02,SSE,EAST WENATCHEE,47.4197,-120.2797,4725182,12016782
156,201603,102838,614546,4,0.02,E,EAST WENATCHEE,47.42,-120.2797,4725200,12016782
157,201603,102838,614547,1,2.98,SSW,ENTIAT,47.6304,-120.2454,4737824,12014724
158,201603,102838,614547,2,3.26,NNE,WAGNERSBURG,47.6235,-120.243,4737410,12014580
159,201603,102838,614547,3,3.23,SSW,ENTIAT,47.625,-120.2388,4737500,12014328
160,201603,102838,614547,4,2.89,SSW,ENTIAT,47.6305,-120.24,4737830,12014400
161,201603,102849,614629,1,1.94,NNW,GREENWOOD,36.8954,-84.4949,3653724,8429694
162,201603,102849,614629,2,2.0,S,WHITLEY CITY,36.6911,-84.47,3641466,8428200
163,201603,102849,614671,1,0.95,S,YOUNGS CREEK,36.8564,-84.2331,3651384,8413986
164,201603,102849,614672,1,2.08,NE,(LOZ)MCGEE FLD LONDO,37.1017,-84.0538,376102,843228
165,201603,102849,614672,2,2.56,NNW,LESBAS,37.1127,-84.0218,376762,841308
166,201603,102849,614673,1,0.43,SSW,ASHER,37.0441,-83.4026,372646,8324156
167,201603,102849,614673,2,0.92,NW,CUTSHIN,37.0902,-83.2607,375412,8315642
168,201603,102860,614723,1,2.51,SW,BOYDS,48.7011,-118.1633,4842066,1189798
169,201603,102860,614723,2,2.73,SSW,BOYDS,48.6968,-118.1623,4841808,1189738
170,201603,102860,614723,3,2.51,SSW,BOYDS,48.6993,-118.1592,4841958,1189552
171,201603,102860,614723,4,2.4,SW,BOYDS,48.7016,-118.1604,4842096,1189624
172,201603,102860,615220,1,8.8,SE,OKANOGAN LEGION ARPT,48.2778,-119.41799999999999,4816668,11925080
173,201603,102860,615220,2,9.11,SE,OKANOGAN LEGION ARPT,48.2737,-119.4145,4816422,11924870
174,201603,102860,615220,3,9.09,SE,OKANOGAN LEGION ARPT,48.2768,-119.4102,4816608,11924612
175,201603,102860,615220,4,8.91,SE,OKANOGAN LEGION ARPT,48.2789,-119.4127,4816734,11924762
176,201603,102867,614792,1,3.0,E,GRAFTON,39.35,-79.9739,3921000,7958434
177,201603,102867,614793,1,0.0,N,WEST MILFORD,39.2,-80.4,3912000,8024000
178,201603,102867,614902,1,0.0,N,CLARKSBURG,39.28,-80.35,3916800,8021000
179,201605,106397,638836,1,1.16,ESE,NEW PALESTINE,39.7135,-85.8599,3942810,8551594
180,201605,106397,638837,1,2.72,WNW,ELWOOD,40.28,-85.88,4016800,8552800
181,201605,106397,638838,1,2.03,SW,FLORIDA,40.1496,-85.7475,408976,8544850
182,201605,106397,638839,1,0.87,SW,ANDERSON,40.09,-85.69,405400,8541400
183,201605,106397,638840,1,2.72,WNW,ELWOOD,40.28,-85.88,4016800,8552800
184,201605,106397,638842,1,0.94,SSE,CLAYTON,39.6676,-86.5228,3940056,8631368
185,201605,106397,638848,1,1.18,W,BEECH GROVE,39.7232,-86.1017,3943392,866102
186,201605,106397,638955,1,5.45,N,LINDEN,40.2589,-86.9022,4015534,8654132
187,201605,106397,638955,2,5.46,N,LINDEN,40.2588,-86.9066,4015528,8654396
188,201605,106397,638955,3,5.44,N,LINDEN,40.2586,-86.9066,4015516,8654396
189,201605,106397,638955,4,5.43,N,LINDEN,40.2586,-86.9022,4015516,8654132
190,201605,106397,638957,1,1.13,SW,LINDEN,40.1701,-86.917,4010206,8655020
191,201605,106399,638852,1,0.54,W,RAGSDALE,38.75,-87.33,3845000,8719800
192,201605,106399,638854,1,0.88,SW,WASHINGTON,38.66,-87.18,3839600,8710800
193,201605,106399,638855,1,0.69,S,WASHINGTON,38.66,-87.17,3839600,8710200
194,201605,106399,638958,1,0.69,S,WASHINGTON,38.66,-87.17,3839600,8710200
195,201605,106399,638974,1,2.01,W,IONA,38.5502,-87.5072,3833012,8730432
196,201605,106399,638978,1,2.99,SW,BRUCEVILLE,38.72,-87.46,3843200,8727600
197,201605,106399,638980,1,2.92,S,FRITCHTON,38.6382,-87.4285,3838292,8725710
198,201605,106401,639097,1,2.16,W,FRITCHTON,38.68,-87.46,3840800,8727600
199,201605,106401,639098,1,0.54,W,BICKNELL,38.78,-87.31,3846800,8718600
200,201605,106401,639103,1,2.88,NE,PURCELL,38.6253,-87.4777,3837518,8728662
201,201605,106401,639104,1,7.0,W,BLOOMFIELD,39.03,-87.0604,391800,873624
202,201605,106401,639114,1,0.66,ESE,BROWNSBURG,39.8447,-86.3896,3950682,8623376
203,201603,103186,617983,3,0.74,S,NINE FORKS,32.5694,-93.2012,3234164,9312072
204,201603,103186,617983,4,0.59,S,NINE FORKS,32.5715,-93.20100000000001,3234290,9312060
205,201603,103186,617985,1,0.37,E,MINDEN,32.6203,-93.2737,3237218,9316422
206,201603,103186,617985,2,0.37,E,MINDEN,32.619,-93.2737,3237140,9316422
207,201603,103186,617985,3,0.47,E,MINDEN,32.6191,-93.272,3237146,9316320
208,201603,103186,617985,4,0.47,E,MINDEN,32.6207,-93.272,3237242,9316320
209,201603,103186,618115,1,0.8,E,HOMER,32.7814,-93.0564,3246884,933384
210,201603,103186,618115,2,0.83,ENE,HOMER,32.7831,-93.0562,3246986,933372
211,201603,103186,618115,3,0.93,ENE,HOMER,32.7832,-93.0544,3246992,933264
212,201603,103186,618115,4,0.88,E,HOMER,32.7813,-93.0549,3246878,933294
213,201603,103186,618116,1,0.11,WSW,STONEWALL,32.2795,-93.8219,3216770,9349314
214,201603,103186,618116,2,0.35,NW,STONEWALL,32.2839,-93.8238,3217034,9349428
215,201603,103186,618116,3,3.28,E,STONEWALL,32.2861,-93.7644,3217166,9345864
216,201603,103186,618116,4,3.17,E,STONEWALL,32.2776,-93.7657,3216656,9345942
217,201603,103186,618117,1,0.89,WSW,HAUGHTON,32.5262,-93.5147,3231572,9330882
218,201603,103186,618117,2,1.45,NNW,HAUGHTON,32.5487,-93.5113,3232922,9330678
219,201603,103186,618117,3,1.62,NNE,HAUGHTON,32.5512,-93.488,3233072,9329280
220,201603,103186,618117,4,0.91,ESE,HAUGHTON,32.5254,-93.4854,3231524,9329124
221,201603,103186,618118,1,0.0,N,HALL SUMMIT,32.18,-93.3,3210800,9318000
222,201603,103186,618118,2,1.83,S,HALL SUMMIT,32.1536,-93.3014,329216,9318084
223,201603,103186,618118,3,1.33,SE,CROSS RDS,32.1649,-93.3859,329894,9323154
224,201603,103186,618118,4,1.41,NNE,CROSS RDS,32.1974,-93.3876,3211844,9323256
225,201603,103186,618122,1,0.95,SE,SHREVEPORT,32.4699,-93.73899999999999,3228194,9344340
226,201603,103186,618122,2,1.42,SSE,SHREVEPORT,32.4622,-93.7377,3227732,9344262
227,201603,103186,617953,4,0.92,S,LA ROSEN,32.3867,-93.8004,3223202,9348024
228,201603,103186,617957,1,0.64,NNW,BLENHEIM,32.4888,-93.6832,3229328,9340992
229,201603,103186,617957,2,0.24,NNE,BLENHEIM,32.4832,-93.6786,3228992,9340716
230,201603,103186,617957,3,0.89,ENE,BLENHEIM,32.4843,-93.6656,3229058,9339936
231,201603,103186,617957,4,0.62,S,(BAD)BARKSDALE AFB,32.4912,-93.6715,3229472,9340290
232,201603,103186,617961,1,0.56,W,KEITHVILLE ARPT,32.3497,-93.8296,3220982,9349776
233,201603,103186,617961,2,0.68,SW,KEITHVILLE ARPT,32.343,-93.8282,3220580,9349692
234,201603,103186,617961,3,0.62,SW,KEITHVILLE ARPT,32.343,-93.8265,3220580,9349590
235,201603,103186,617961,4,0.45,W,KEITHVILLE ARPT,32.3502,-93.8276,3221012,9349656
236,201603,103186,617963,1,0.81,WSW,(SHV)SHREVEPORT RGNL,32.4443,-93.8423,3226658,9350538
237,201603,103186,617963,2,0.87,SW,(SHV)SHREVEPORT RGNL,32.4422,-93.8417,3226532,9350502
238,201603,103186,617963,3,0.81,SW,(SHV)SHREVEPORT RGNL,32.4423,-93.8403,3226538,9350418
239,201603,103186,617963,4,0.77,WSW,(SHV)SHREVEPORT RGNL,32.4443,-93.8415,3226658,9350490
240,201603,103186,617964,1,0.69,SW,MINDEN,32.6136,-93.2891,3236816,9317346
241,201603,103186,617964,2,0.69,SW,MINDEN,32.6131,-93.2886,3236786,9317316
242,201603,103186,617964,3,0.62,SW,MINDEN,32.6138,-93.2877,3236828,9317262
243,201603,103186,617964,4,0.63,SW,MINDEN,32.6142,-93.2884,3236852,9317304
244,201603,103186,617971,1,1.46,ENE,NOLES LNDG,32.4776,-93.3266,3228656,9319596
245,201603,103186,617971,2,2.42,WNW,OGDEN,32.4857,-93.3071,3229142,9318426
246,201603,103186,617971,3,1.94,WNW,OGDEN,32.4799,-93.3012,3228794,9318072
247,201603,103186,617971,4,1.57,ENE,NOLES LNDG,32.4761,-93.324,3228566,9319440
248,201603,103186,617976,1,0.42,N,DOYLINE,32.536,-93.4187,3232160,9325122
249,201603,103186,617976,2,0.15,SE,DOYLINE,32.5287,-93.41799999999999,3231722,9325080
250,201603,103186,617976,3,1.1,E,DOYLINE,32.5294,-93.4011,3231764,9324066
251,201603,103186,617976,4,1.22,ENE,DOYLINE,32.5369,-93.4008,3232214,9324048
252,201603,103186,617978,1,4.16,W,HOLLY SPGS,32.6919,-93.241,3241514,9314460
253,201603,103186,617978,2,3.97,NE,MINDEN WEBSTER FLD,32.6843,-93.2453,3241058,9314718
254,201603,103186,617978,3,1.94,SW,HOLLY SPGS,32.6833,-93.1969,3240998,9311814
255,201603,103186,617978,4,1.21,WSW,HOLLY SPGS,32.6905,-93.1874,3241430,9311244
256,201603,103186,617981,1,1.88,SSE,SIBLEY,32.5072,-93.2825,3230432,9316950
257,201603,103186,617981,2,2.19,SSE,SIBLEY,32.5018,-93.28299999999999,3230108,9316980
258,201603,103186,617981,3,2.27,SSE,SIBLEY,32.5019,-93.2798,3230114,9316788
259,201603,103186,617981,4,1.98,SE,SIBLEY,32.5073,-93.2794,3230438,9316764
260,201603,103186,617983,1,0.65,SW,NINE FORKS,32.5722,-93.2064,3234332,9312384
261,201603,103186,617983,2,0.78,SSW,NINE FORKS,32.5704,-93.20700000000001,3234224,9312420
262,201605,106328,638411,1,0.0,N,LEESYLVANIA STATE PARK (LSLVN),38.67,-77.25,3840200,7715000
263,201605,106328,638413,1,2.66,SE,LEESYLVANIA STATE PARK (LSLVN),38.6402,-77.2189,3838412,7713134
264,201605,106328,638414,1,0.0,N,HERRING BAY (HRB),38.73,-76.54,3843800,7632400
265,201605,106328,638415,1,0.0,N,THOMAS POINT (TPLM2),38.9,-76.44,3854000,7626400
266,201605,106328,638416,1,0.0,N,KENT ISLAND (KNT),38.92,-76.36,3855200,7621600
267,201605,106328,638417,1,0.0,N,BLACKWALNUT HARBOR (BWH),38.68,-76.33,3840800,7619800
268,201605,106328,638418,1,1.14,ESE,LONG BRANCH ES (ARLNL),38.8614,-77.0719,3851684,774314
269,201605,106328,638419,1,0.0,N,(DCA)REAGAN NATIONAL AIRPORT,38.86,-77.03,3851600,771800
270,201605,106328,638420,1,0.0,N,COBB POINT (COB),38.24,-76.83,3814400,7649800
271,201605,106328,638421,1,0.0,N,THOMAS POINT (TPLM2),38.9,-76.44,3854000,7626400
272,201605,106328,638422,1,0.0,N,TOLLY POINT (TOL),38.94,-76.44,3856400,7626400
273,201605,106328,638423,1,0.0,N,CAMBRIDGE (CAMM2),38.57,-76.07,3834200,764200
274,201605,106328,638424,1,0.0,N,SOLOMONS ISLAND (SLIM2),38.32,-76.45,3819200,7627000
275,201605,106331,638425,1,0.0,N,WASHINGTON DC (WASD2),38.87,-77.02,3852200,771200
276,201605,106331,638426,1,0.0,N,(DCA)REAGAN NATIONAL AIRPORT,38.86,-77.03,3851600,771800
277,201605,106331,638427,1,2.28,SE,LEESYLVANIA STATE PARK (LSLVN),38.6431,-77.2257,3838586,7713542
278,201605,106331,638428,1,0.0,N,QUANTICO (KNYG),38.51,-77.3,3830600,7718000
279,201605,106331,638429,1,0.0,N,GREENBERRY POINT (GBY),38.97,-76.46,3858200,7627600
280,201605,106331,638430,1,0.0,N,BALTIMORE KEY BRIDGE (FSKM2),39.22,-76.53,3913200,7631800
281,201605,106331,638431,1,0.0,N,HART MILLER ISLAND (HRT),39.25,-76.37,3915000,7622200
282,201605,106331,638432,1,0.0,N,GROVE POINT (GVP),39.4,-76.04,3924000,762400
283,201605,106331,638433,1,0.0,N,HERRING BAY (HRB),38.73,-76.54,3843800,7632400
284,201605,106331,638434,1,0.0,N,TOLLY POINT (TOL),38.94,-76.44,3856400,7626400
285,201605,106331,638435,1,0.0,N,THOMAS POINT (TPLM2),38.9,-76.44,3854000,7626400
286,201605,106331,638436,1,0.0,N,POTOMAC LIGHT 33 (LT3),38.34,-76.99,3820400,7659400
287,201605,106331,638437,1,0.0,N,BABAR POINT (BAB),38.31,-77.03,3818600,771800
288,201605,106331,638438,1,0.0,N,CUCKOLD CREEK (CCK),38.31,-76.93,3818600,7655800
289,201605,106331,638439,1,0.0,N,MONROE CREEK (MON),38.23,-76.95,3813800,7657000
290,201605,106331,638440,1,0.0,N,COBB POINT (COB),38.24,-76.83,3814400,7649800
291,201605,106375,638653,1,0.52,ENE,DEERING,66.07300000000001,-162.7528,664380,16245168
292,201605,106375,638653,2,0.28,SSE,DEERING,66.066,-162.7679,663960,16246074
293,201605,106375,638653,3,0.81,ESE,DEERING,66.0665,-162.7424,663990,16244544
294,201605,106375,638653,4,0.93,E,DEERING,66.0721,-162.7372,664326,16244232
295,201605,106390,638729,1,3.99,ESE,MADISON,34.62,-83.14,3437200,838400
296,201605,106390,638730,1,3.99,ESE,MADISON,34.62,-83.14,3437200,838400
297,201605,106390,638731,1,2.91,WNW,RIVER FALLS,35.13,-82.58,357800,8234800
298,201605,106390,638731,2,1.83,WSW,RIVER FALLS,35.11,-82.56,356600,8233600
299,201605,106390,638732,1,1.83,ENE,BLYTHE SHOALS,35.08,-82.54,354800,8232400
300,201605,106390,638733,1,2.68,SE,NIMMONS,34.99,-82.85,3459400,8251000
301,201605,106390,638734,1,1.33,ESE,SPARTANSBURG DWTN AR,34.91,-81.95,3454600,8157000
302,201605,106391,638735,1,0.9,SE,AVALON,34.49,-83.19,3429400,8311400
303,201605,106391,638736,1,0.0,N,TOCCOA,34.58,-83.32,3434800,8319200
304,201605,106391,638737,1,0.89,NW,HABERSHAM,34.61,-83.58,3436600,8334800
305,201605,106392,638738,1,0.69,S,JUPITER,35.76,-82.6,3545600,8236000
306,201605,106392,638739,1,84.29,ESE,SHUMON,35.09,-80.85,355400,8051000
307,201605,106392,638740,1,3.06,SE,CASAR,35.49,-81.59,3529400,8135400
308,201605,106392,638741,1,0.69,N,STUBBS,35.34,-81.48,3520400,8128800
309,201605,106392,638741,2,1.69,W,OAKGROVE,35.27,-81.46,3516200,8127600
310,201605,106392,638742,1,3.15,WSW,MATTHEWS,35.1,-80.78,356000,8046800
311,201605,106392,638742,2,1.49,SSE,HOODS,35.11,-80.69,356600,8041400
312,201605,106392,638743,1,0.89,NW,STOUTS,35.08,-80.66,354800,8039600
313,201605,106392,639224,1,0.89,SE,BARIUM SPGS,35.71,-80.89,3542600,8053400
314,201605,106393,638759,1,5.28,WSW,JOCASSEE,34.95,-83.02,3457000,831200
315,201605,106393,638760,1,0.89,NW,NEWRY,34.73,-82.91,3443800,8254600
316,201605,106393,638761,1,3.5,S,CAMPBELL,34.47,-82.52,3428200,8231200
317,201605,106393,638762,1,0.89,SW,COURTENAY,34.71,-82.93,3442600,8255800
318,201605,106393,638762,2,0.69,S,KEOWEE,34.69,-82.88,3441400,8252800
319,201605,106393,638763,1,4.22,WSW,(AND)ANDERSON CO ARP,34.48,-82.79,3428800,8247400
320,201605,106393,638763,2,1.49,SSE,WILLIAMSTON,34.6,-82.47,3436000,8228200
321,201605,106393,638764,1,1.7,E,FELLOWSHIP XRDS,34.7,-82.29,3442000,8217400
322,201605,106393,638764,2,0.0,N,SIMPSONVILLE,34.73,-82.25,3443800,8215000
323,201605,106394,638765,1,0.89,SW,HASKINGS MILLS,35.26,-80.89,3515600,8053400
324,201605,106394,638765,2,0.89,NW,CHARLOTTE,35.24,-80.86,3514400,8051600
325,201605,106395,638766,1,1.49,NNE,WALHALLA,34.79,-83.06,3447400,833600
326,201605,106395,638767,1,1.49,SSE,WEST UNION,34.75,-83.04,3445000,832400
327,201605,106395,638767,2,3.07,SE,WEST UNION,34.74,-83.01,3444400,83600
328,201605,106396,638768,1,1.49,SSE,BULL SHOALS LAKE WES,36.45,-92.82,3627000,9249200
329,201605,106396,638769,1,2.34,WNW,HILL TOP,36.16,-93.26,369600,9315600
330,201605,106396,638770,1,0.56,E,QUITMAN,35.38,-92.21,3522800,9212600
331,201605,106396,638771,1,0.9,NE,BRUMMITT,34.54,-91.66,3432400,9139600
332,201605,106401,639115,1,2.11,NE,TREMONT,39.79,-86.29,3947400,8617400
333,201605,106403,638784,1,0.36,ENE,STUART PLACE,26.180999999999997,-97.7643,2610860,9745858
334,201605,106403,638785,1,1.68,NNE,STUART PLACE,26.201,-97.7565,2612060,9745390
335,201605,106417,638864,1,2.66,SW,CHASE CITY MUNI,36.75,-78.53,3645000,7831800
336,201605,106417,638865,1,0.89,SW,SKIPWITH,36.69,-78.49,3641400,7829400
337,201605,106417,638866,1,1.31,WNW,BASKERVILLE,36.69,-78.3,3641400,7818000
338,201605,106418,638867,1,2.64,NW,ZION,38.01,-78.28,38600,7816800
339,201605,106418,638869,1,1.49,NNE,CUMBERLAND,37.5,-78.24,3730000,7814400
340,201605,106419,638870,1,0.54,W,FRUITLAND,38.32,-75.63,3819200,7537800
341,201605,106422,638879,1,3.77,ENE,PRITCHARD,32.29,-80.94,3217400,8056400
342,201605,106422,638879,2,4.14,ENE,PRITCHARD,32.2974,-80.937,3217844,8056220
343,201605,106422,638879,3,4.26,ENE,PRITCHARD,32.2964,-80.9341,3217784,8056046
344,201605,106422,638879,4,3.93,ENE,PRITCHARD,32.2888,-80.9365,3217328,8056190
345,201605,106422,638880,1,1.13,SE,RIDGELAND MUNI ARPT,32.486999999999995,-80.988,3229220,8059280
346,201605,106331,638441,1,0.0,N,PINEY POINT (PPTM2),38.13,-76.53,387800,7631800
347,201605,106331,638442,1,0.0,N,SOLOMONS ISLAND (SLIM2),38.32,-76.45,3819200,7627000
348,201605,106331,638443,1,0.0,N,POINT LOOKOUT (PTL),38.04,-76.32,382400,7619200
349,201605,106331,638444,1,0.0,N,LEWISETTA MD (LWTV2),38.0,-76.47,3800,7628200
350,201605,106331,638445,1,0.0,N,POTOMAC POINT LOOKOUT BUOY (44042),38.03,-76.34,381800,7620400
351,201605,106331,638446,1,0.0,N,LOWER HOOPERS ISLAND (HPR),38.26,-76.18,3815600,7610800
352,201605,106331,638447,1,0.0,N,PATUXENT RIVER ASOS (KNAK),38.29,-76.41,3817400,7624600
353,201605,106331,638448,1,0.0,N,BISHOPS HEAD (BISM2),38.22,-76.04,3813200,762400
354,201605,106331,638449,1,0.0,N,CRISFIELD CG (CRS),37.97,-75.88,3758200,7552800
355,201605,106331,638450,1,0.0,N,RACCOON POINT (RAC),38.14,-75.79,388400,7547400
356,201605,106331,638451,1,0.0,N,QUANTICO (KNYG),38.51,-77.3,3830600,7718000
357,201605,106331,638452,1,0.0,N,POTOMAC LIGHT 33 (LT3),38.34,-76.99,3820400,7659400
358,201605,106331,638453,1,0.0,N,CAMBRIDGE (CAMM2),38.57,-76.07,3834200,764200
359,201605,106332,638454,1,7.01,ENE,LEESYLVANIA STATE PARK (LSLVN),38.7054,-77.1281,3842324,777686
360,201605,106332,638455,1,0.0,N,AG WRIGHT MS (SAFRD),38.42,-77.33,3825200,7719800
361,201605,106332,638456,1,0.0,N,BALTIMORE KEY BRIDGE (FSKM2),39.22,-76.53,3913200,7631800
362,201605,106332,638457,1,0.0,N,BALTIMORE (BLTM2),39.27,-76.58,3916200,7634800
363,201605,106332,638458,1,0.0,N,PATAPSCO BUOY (44043),39.15,-76.39,399000,7623400
364,201605,106332,638459,1,0.0,N,ROD N REEL CHESAPEAKE BEACH (CHSRL),38.69,-76.53,3841400,7631800
365,201605,106333,638460,1,0.0,N,ADIAL,37.85,-78.82,3751000,7849200
366,201605,106333,638461,1,0.0,N,LOVINGSTON,37.77,-78.88,3746200,7852800
367,201605,106333,638462,1,0.88,NE,ADIAL,37.86,-78.81,3751600,7848600
368,201605,106333,638463,1,0.0,N,HEARDS,37.92,-78.75,3755200,7845000
369,201605,106333,638464,1,0.0,N,LIMSTRONG,38.72,-77.47,3843200,7728200
370,201605,106333,638465,1,1.28,ENE,CANOVA,38.69,-77.41,3841400,7724600
371,201605,106333,638466,1,0.54,W,CLIFTON,38.78,-77.39,3846800,7723400
372,201605,106333,638467,1,1.28,ENE,CANOVA,38.69,-77.41,3841400,7724600
373,201605,106333,638468,1,0.69,N,OAKTON,38.89,-77.3,3853400,7718000
374,201605,106333,638469,1,1.08,E,HOADLY,38.68,-77.35,3840800,7721000
375,201605,106333,638470,1,0.54,E,BUFFS CORNER,38.78,-77.32,3846800,7719200
376,201605,106333,638471,1,1.08,E,HOADLY,38.68,-77.35,3840800,7721000
377,201605,106333,638472,1,2.07,N,VALE,38.91,-77.35,3854600,7721000
378,201605,106333,638473,1,1.28,WNW,OCCOQUAN,38.69,-77.29,3841400,7717400
379,201605,106333,638474,1,1.28,WSW,WOODBRIDGE ARPT,38.67,-77.34,3840200,7720400
380,201605,106333,638475,1,0.88,SE,CLARKS CROSSING,38.91,-77.29,3854600,7717400
381,201605,106333,640201,1,1.28,WNW,FAIRFAX PARK,38.78,-77.27,3846800,7716200
382,201605,106333,640202,1,0.54,E,KENMORE,38.95,-77.26,3857000,7715600
383,201605,106333,640203,1,0.69,N,COLCHESTER,38.68,-77.23,3840800,7713800
384,201605,106333,640204,1,1.28,ESE,OCCOQUAN,38.67,-77.25,3840200,7715000
385,201605,106333,640205,1,0.54,E,VIENNA,38.9,-77.26,3854000,7715600
386,201605,106333,640206,1,0.88,SE,CROWELLS CORNER,38.94,-77.29,3856400,7717400
387,201605,106333,640207,1,0.54,E,KENMORE,38.95,-77.26,3857000,7715600
388,201605,106333,640208,1,0.88,SW,BETHEL,38.64,-77.33,3838400,7719800
389,201605,106333,640209,1,1.75,WSW,BARCROFT,38.89,-77.16,3853400,779600
390,201605,106333,640210,1,1.28,ESE,BARCROFT,38.89,-77.11,3853400,776600
391,201605,106333,640211,1,0.0,N,BARCROFT,38.9,-77.13,3854000,777800
392,201605,106333,640212,1,1.08,E,BARCROFT,38.9,-77.11,3854000,776600
393,201605,106333,640238,1,1.28,WNW,OCCOQUAN,38.69,-77.29,3841400,7717400
394,201605,106368,638607,1,2.67,WNW,HARGILL,26.4576,-98.0624,2627456,983744
395,201605,106368,638607,2,0.2,WNW,LA BLANCA,26.3013,-98.0729,2618078,984374
396,201605,106369,638608,1,0.75,NNW,FALCON HGTS,26.5595,-99.1361,2633570,998166
397,201605,106369,638609,1,0.0,N,EL SAUZ,26.58,-98.87,2634800,9852200
398,201605,106369,638610,1,4.93,NNE,RIO GRANDE CITY ARPT,26.4871,-98.823,2629226,9849380
399,201605,106372,638620,1,2.32,ENE,CHIHUAHUA,26.2385,-98.3888,2614310,9823328
400,201605,106372,638620,2,5.59,ESE,HIDALGO,26.0698,-98.1864,264188,9811184
401,201605,106372,638624,1,0.0,N,PHARR,26.2,-98.18,2612000,9810800
402,201605,106372,638626,1,0.0,N,(MFE)MILLER INTL ARP,26.17,-98.23,2610200,9813800
403,201605,106396,638772,1,0.69,S,SALEM,35.07,-92.52,354200,9231200
404,201605,106396,638773,1,1.13,W,CONWAY,35.08,-92.47,354800,9228200
405,201605,106396,638774,1,0.69,N,CONWAY,35.09,-92.45,355400,9227000
406,201605,106396,638775,1,0.56,E,BRADFORD,35.42,-91.46,3525200,9127600
407,201605,106396,638775,2,1.14,NE,BRADFORD,35.4323,-91.4566,3525938,9127396
408,201605,106396,638775,3,1.72,ENE,BRADFORD,35.4289,-91.4414,3525734,9126484
409,201605,106396,638775,4,1.0,ESE,BRADFORD,35.4122,-91.4552,3524732,9127312
410,201605,106396,638776,1,0.93,NW,SHERIDAN,34.3101,-92.4106,3418606,9224636
411,201605,106397,638792,1,4.67,SSW,CARLISLE,38.91,-87.44,3854600,8726400
412,201605,106397,638810,1,1.6,E,SWALLS,39.47,-87.25,3928200,8715000
413,201605,106397,638814,1,0.87,NNW,WANAMAKER,39.711,-86.0082,3942660,86492
414,201605,106397,638816,1,0.54,E,FAIRVIEW PARK,39.6797,-87.4098,3940782,8724588
415,201605,106397,638817,1,0.87,SW,COMMERCIAL PLACE,39.64,-86.84,3938400,8650400
416,201605,106397,638819,1,0.69,N,LINDEN,40.19,-86.9,4011400,8654000
417,201605,106397,638820,1,1.38,S,COATESVILLE,39.66,-86.67,3939600,8640200
418,201605,106397,638822,1,2.25,S,SIX PTS,39.6977,-86.3356,3941862,8620136
419,201605,106397,638824,1,2.14,NNE,ELIZAVILLE,40.15,-86.36,409000,8621600
420,201605,106397,638827,1,1.45,ENE,FIVE PTS,39.7399,-86.0259,3944394,861554
421,201605,106397,638828,1,0.53,W,NEW PALESTINE,39.72,-85.89,3943200,8553400
422,201605,106397,638830,1,2.76,WSW,SHARPSVILLE,40.3603,-86.1256,4021618,867536
423,201605,106397,638833,1,0.53,W,NEW PALESTINE,39.72,-85.89,3943200,8553400
424,201605,106397,638834,1,1.74,WSW,ACTON,39.66,-86.0,3939600,8600
425,201605,106397,638835,1,0.69,S,ATLANTA,40.21,-86.03,4012600,861800
426,201603,103168,616454,1,2.77,ENE,SUPERIOR,32.8335,-93.935,3250010,9356100
427,201603,103168,616455,1,0.96,W,IDA,33.0017,-93.9365,33102,9356190
428,201603,103168,616456,1,0.77,NW,CAVETT,32.789,-93.8378,3247340,9350268
429,201603,103168,616457,1,3.88,NNW,HUGHES,32.8301,-93.7501,3249806,9345006
430,201603,103169,616458,1,1.05,ESE,BRADLEY,33.0969,-93.6523,335814,9339138
431,201603,103169,616459,1,0.42,NNE,LEWISVILLE,33.3553,-93.5765,3321318,9334590
432,201603,103169,616461,1,1.79,ENE,BEECH CREEK,33.4067,-93.3,3324402,9318000
433,201603,103169,616463,1,3.55,SW,PLAINFIELD,33.0208,-93.3703,331248,9322218
434,201603,103169,616466,1,2.65,WSW,HORSEHEAD,33.0901,-93.3142,335406,9318852
435,201603,103169,616469,1,3.5,NNE,ATLANTA,33.1187,-93.0537,337122,933222
436,201603,103169,616471,1,1.93,S,NEW HOPE,33.0422,-92.9322,332532,9255932
437,201603,103176,616539,1,0.0,N,DICKSON,34.19,-96.99,3411400,9659400
438,201603,103176,616540,1,4.78,ESE,ARDMORE,34.15,-97.06,349000,973600
439,201603,103176,616541,1,3.58,NW,STONEWALL,34.69,-96.57,3441400,9634200
440,201603,103176,616542,1,0.69,N,TISHOMINGO,34.24,-96.68,3414400,9640800
441,201603,103176,616544,1,6.81,NW,LULA,34.78,-96.5,3446800,9630000
442,201603,103176,616545,1,0.0,N,TISHOMINGO,34.23,-96.68,3413800,9640800
443,201603,103176,616546,1,0.0,N,TISHOMINGO,34.23,-96.68,3413800,9640800
444,201603,103176,616547,1,0.0,N,TISHOMINGO,34.23,-96.68,3413800,9640800
445,201603,103176,616548,1,4.48,ESE,ADA,34.74,-96.61,3444400,9636600
446,201603,103176,616549,1,0.0,N,FILLMORE,34.27,-96.5,3416200,9630000
447,201603,103176,616550,1,2.67,WSW,ATOKA,34.36,-96.17,3421600,9610200
448,201603,103176,616551,1,0.0,N,LAMAR,35.1,-96.13,356000,967800
449,201603,103176,616552,1,0.0,N,ATOKA,34.38,-96.13,3422800,967800
450,201603,103176,616553,1,0.0,N,COLEMAN,34.27,-96.42,3416200,9625200
451,201603,103176,616554,1,0.0,N,COLEMAN,34.27,-96.42,3416200,9625200
452,201604,103560,619129,1,1.33,WSW,TURKEY,34.39,-100.9,3423400,10054000
453,201612,110875,661834,1,0.0,N,NORTH JETTY,29.37,-94.73,2922200,9443800
454,201612,110875,661841,1,0.0,N,BUOY 42035,29.23,-94.4,2913800,9424000
455,201612,110875,672300,1,13.11,E,SMITH PT,29.4957,-94.5556,2929742,9433336
456,201612,110875,672301,1,13.12,E,SMITH PT,29.4955,-94.5555,2929730,9433330
457,201612,110875,672303,1,1.7,NNE,TEXAS CITY,29.4229,-94.8899,2925374,9453394
458,201612,110887,661864,1,1.18,SE,DINSMORE,29.3076,-96.0366,2918456,962196
459,201612,110919,662170,1,2.1,ENE,MADRID,31.0468,-85.3605,312808,8521630
460,201612,110919,662170,2,2.04,ENE,MADRID,31.044,-85.3597,312640,8521582
461,201612,110919,662170,3,1.31,WSW,COTTONWOOD,31.041,-85.3196,312460,8519176
462,201612,110919,662170,4,1.21,WSW,COTTONWOOD,31.0452,-85.3197,312712,8519182
463,201612,110919,662171,1,2.5,WNW,LOVE HILL,31.1178,-85.3112,317068,8518672
464,201612,110919,662171,2,2.28,W,LOVE HILL,31.1152,-85.3081,316912,8518486
465,201612,110919,662171,3,2.13,WNW,LOVE HILL,31.1207,-85.3038,317242,8518228
466,201612,110919,662171,4,2.4,WNW,LOVE HILL,31.1232,-85.3076,317392,8518456
467,201612,110919,662172,1,0.84,N,GRANGEBURG,31.0121,-85.2098,31726,8512588
468,201612,110919,662172,2,2.24,NNE,GRANGEBURG,31.0275,-85.19,311650,8511400
469,201612,110919,662172,3,2.31,NNE,GRANGEBURG,31.0318,-85.1982,311908,8511892
470,201612,110919,662172,4,1.34,NNW,GRANGEBURG,31.0188,-85.2158,311128,8512948
471,201612,110919,662173,1,0.57,ESE,HODGESVILLE,31.0755,-85.3619,314530,8521714
472,201612,110919,662173,2,1.12,SSE,HODGESVILLE,31.0647,-85.3639,313882,8521834
473,201604,103570,618970,1,0.59,W,JOHNS,32.13,-89.84,327800,8950400
474,201604,103570,618971,1,0.69,S,STAR,32.09,-90.05,325400,903000
475,201604,103570,618992,1,3.03,ESE,KIRBY,31.51,-90.95,3130600,9057000
476,201604,103570,618992,2,0.59,E,MEADVILLE,31.47,-90.89,3128200,9053400
477,201604,103571,618976,1,0.58,E,JEFFERSON,33.63,-89.89,3337800,8953400
478,201604,103571,618978,1,0.69,S,HOLCOMB,33.76,-89.98,3345600,8958800
479,201604,103571,618985,1,0.9,NW,SAWYER,33.53,-89.73,3331800,8943800
480,201612,110919,662173,3,0.98,S,HODGESVILLE,31.0658,-85.3681,313948,8522086
481,201612,110919,662173,4,0.44,SE,HODGESVILLE,31.0765,-85.3639,314590,8521834
482,201612,110919,662174,1,0.91,ENE,HODGESVILLE,31.0843,-85.3554,315058,8521324
483,201612,110919,662174,2,1.04,SE,HODGESVILLE,31.0711,-85.3558,314266,8521348
484,201612,110919,662174,3,1.2,ESE,HODGESVILLE,31.0709,-85.3528,314254,8521168
485,201612,110919,662174,4,1.1,ENE,HODGESVILLE,31.0849,-85.3524,315094,8521144
486,201612,110920,662236,1,1.15,SSW,HOLLAND CROSSROADS,30.9449,-85.6482,3056694,8538892
487,201604,103574,619020,1,1.78,NE,TRAVIS,33.988,-81.7078,3359280,8142468
488,201604,103574,619021,1,1.26,WSW,MT WILLING,33.992,-81.6897,3359520,8141382
489,201604,103574,619022,1,1.18,WSW,MT WILLING,33.9917,-81.688,3359502,8141280
490,201604,103574,619023,1,0.31,NNE,MT WILLING,34.0042,-81.6679,34252,8140074
491,201604,103574,619024,1,2.61,NNW,BATESBURG,33.9366,-81.561,3356196,8133660
492,201604,103574,619025,1,0.0,N,CHAPIN,34.17,-81.35,3410200,8121000
493,201612,110920,662236,2,1.36,SSW,HOLLAND CROSSROADS,30.9417,-85.6481,3056502,8538886
494,201612,110920,662236,3,1.34,S,HOLLAND CROSSROADS,30.9409,-85.6359,3056454,8538154
495,201612,110920,662236,4,1.9,SSE,HOLLAND CROSSROADS,30.9332,-85.6327,3055992,8537962
496,201612,110920,662236,5,1.94,SSE,HOLLAND CROSSROADS,30.934,-85.6278,3056040,8537668
497,201612,110920,662236,6,1.1,SSE,HOLLAND CROSSROADS,30.9457,-85.6318,3056742,8537908
498,201604,103629,619357,1,3.42,E,ST PETERSBURG BEACH,27.7376,-82.6948,2744256,8241688
499,201604,103629,619373,1,8.27,S,CLEARWATER BEACH,27.8615,-82.8485,2751690,8250910
500,201604,103629,619374,1,2.45,W,MIDDLE TAMPA BAY,27.77,-82.57,2746200,8234200
501,201604,103629,619375,1,8.22,NW,OLD TAMPA BAY,27.9188,-82.6898,2755128,8241388
502,201604,103629,619376,1,3.22,E,OLD TAMPA BAY,27.8415,-82.5281,2750490,8231686
503,201604,103629,619377,1,1.38,S,LOWER TAMPA BAY,27.6,-82.65,2736000,8239000
504,201604,103629,619378,1,2.07,S,VENICE,27.07,-82.45,274200,8227000
505,201604,103630,619379,1,0.0,N,SAINT PETERSBURG PORTS SITE,27.76,-82.63,2745600,8237800
506,201604,103631,619380,1,1.23,N,CLEARWATER BEACH,27.9977,-82.8285,2759862,8249710
507,201604,103631,619380,2,1.24,N,CLEARWATER BEACH,27.9976,-82.8263,2759856,8249578
508,201604,103631,619381,1,0.76,ENE,COACHMAN,27.9723,-82.7178,2758338,8243068
509,201604,103631,619381,2,1.5,E,COACHMAN,27.9689,-82.7054,2758134,8242324
510,201604,103631,619393,1,1.94,ENE,JASMINE ESTATES,28.2994,-82.67,2817964,8240200
511,201604,103631,619393,2,0.88,NE,PORT RICHEY COMPS SITE,28.2997,-82.7206,2817982,8243236
512,201604,103632,619392,1,3.31,S,COLEMAN,31.6221,-84.8895,3137326,8453370
513,201604,103632,619392,2,3.64,SSE,COLEMAN,31.619,-84.8746,3137140,8452476
514,201603,103176,616555,1,4.41,SE,SILO,34.0,-96.42,3400,9625200
515,201604,103667,619624,3,1.24,NW,YUCCA VLY ARPT,34.144,-116.4135,348640,11624810
516,201604,103667,619624,4,1.27,NW,YUCCA VLY ARPT,34.1432,-116.4155,348592,11624930
517,201604,103667,619625,1,0.7,SSW,GROMMET,34.0902,-114.7029,345412,11442174
518,201604,103667,619625,2,2.27,ENE,GROMMET,34.1134,-114.6638,346804,11439828
519,201604,103667,619625,3,2.72,NNE,GROMMET,34.1354,-114.6794,348124,11440764
520,201604,103667,619625,4,1.37,WNW,GROMMET,34.109,-114.7213,346540,11443278
521,201604,103667,619626,1,3.86,NW,CALICO,34.9822,-116.9258,3458932,11655548
522,201604,103667,619626,2,4.32,WNW,CALICO,34.9797,-116.9371,3458782,11656226
523,201604,103667,619626,3,2.69,W,CALICO,34.9472,-116.9174,3456832,11655044
524,201604,103667,619626,4,1.92,W,CALICO,34.9482,-116.9038,3456892,11654228
525,201604,103668,619627,1,1.73,NNW,(LAS)MCCARRAN/LAS VE,36.1041,-115.1587,366246,1159522
526,201604,103668,619627,2,2.04,SW,(LSV)NELLIS AFB LAS,36.2289,-115.0557,3613734,1153342
527,201604,103668,619627,3,5.36,W,LAS VEGAS N AIR TERM,36.2299,-115.2953,3613794,11517718
528,201604,103668,619627,4,0.92,W,BRACKEN,36.1191,-115.2164,367146,11512984
529,201604,103668,619628,1,5.58,SSW,OVERTON ECHO BAY ARP,36.2433,-114.5014,3614598,11430084
530,201604,103668,619628,2,5.47,SSW,OVERTON ECHO BAY ARP,36.245,-114.5017,3614700,11430102
531,201604,103668,619628,3,5.5,SSW,OVERTON ECHO BAY ARP,36.245,-114.5032,3614700,11430192
532,201604,103668,619628,4,5.61,SSW,OVERTON ECHO BAY ARP,36.2432,-114.5029,3614592,11430174
533,201604,103668,619629,1,3.66,SE,CRYSTAL,36.457,-114.7316,3627420,11443896
534,201604,103668,619629,2,4.65,SE,CRYSTAL,36.4534,-114.7097,3627204,11442582
535,201604,103668,619629,3,4.49,SE,CRYSTAL,36.4566,-114.7098,3627396,11442588
536,201604,103668,619629,4,3.5,SE,CRYSTAL,36.4603,-114.7309,3627618,11443854
537,201604,103674,619671,1,4.66,WNW,MILFORD,42.8857,-108.8595,4253142,10851570
538,201604,103674,632666,1,1.42,WSW,(RIW)RIVERTON RGNL A,43.065,-108.4772,433900,10828632
539,201604,103676,619696,1,0.9,SW,BASTROP,32.77,-91.91,3246200,9154600
540,201604,103676,619696,2,1.42,NNE,USEARCO,32.7691,-91.9211,3246146,9155266
541,201604,103676,619696,3,0.77,NNW,BASTROP MEML ARPT,32.7609,-91.9027,3245654,9154162
542,201604,103676,619696,4,0.83,SSE,BASTROP,32.7687,-91.8954,3246122,9153724
543,201604,103676,619700,1,0.9,NW,PIONEER,32.74,-91.44,3244400,9126400
544,201604,103676,619700,2,0.75,SW,FOREST,32.7712,-91.4275,3246272,9125650
545,201604,103676,619700,3,1.12,SE,FOREST,32.7709,-91.4042,3246254,9124252
546,201604,103676,619700,4,0.39,E,PIONEER,32.7307,-91.4234,3243842,9125404
547,201604,103676,619702,1,1.5,SSW,OAK GROVE KELLY ARPT,32.83,-91.43,3249800,9125800
548,201604,103676,619702,2,1.82,SW,OAK GROVE KELLY ARPT,32.8332,-91.444,3249992,9126640
549,201604,103676,619702,3,1.03,SW,OAK GROVE KELLY ARPT,32.8388,-91.4317,3250328,9125902
550,201604,103676,619702,4,1.03,SSW,OAK GROVE KELLY ARPT,32.8366,-91.4276,3250196,9125656
551,201604,103676,619703,1,0.39,NNW,LAKE PROVIDENCE,32.8049,-91.1832,3248294,9110992
552,201604,103676,619703,2,0.48,NW,LAKE PROVIDENCE,32.8054,-91.1851,3248324,9111106
553,201604,103676,619703,3,0.35,NW,LAKE PROVIDENCE,32.803000000000004,-91.1849,3248180,9111094
554,201604,103676,619703,4,0.28,NW,LAKE PROVIDENCE,32.803000000000004,-91.1832,3248180,9110992
555,201604,103692,619827,1,1.74,WNW,MT PLEASANT,33.3767,-94.009,3322602,94540
556,201604,103692,619830,1,1.45,W,MT PLEASANT,33.3722,-94.0049,3322332,94294
557,201604,103692,619850,1,3.17,S,BOYD,33.2843,-93.9332,3317058,9355992
558,201604,103692,619851,1,0.68,E,TEXARKANA,33.4311,-94.0383,3325866,942298
559,201604,103692,619852,1,0.69,E,TEXARKANA,33.4312,-94.0381,3325872,942286
560,201604,103692,619857,1,2.77,WNW,MARS HILL,33.2682,-93.5726,3316092,9334356
561,201604,103692,619858,1,2.31,WNW,JEFFERSON,33.3586,-93.4087,3321516,9324522
562,201604,103692,619859,1,1.05,NNE,GARLAND,33.3632,-93.711,3321792,9342660
563,201604,103692,619860,1,0.76,N,AGRICULTURAL SCHOOL,33.2909,-93.23200000000001,3317454,9313920
564,201604,103692,619861,1,3.5,WNW,NICK SPGS,33.221,-92.6052,3313260,9236312
565,201604,103692,619862,1,2.33,ENE,EL DORADO,33.2091,-92.6313,3312546,9237878
566,201604,103692,619863,1,0.89,NNE,EL DORADO,33.2118,-92.6638,3312708,9239828
567,201604,103692,619864,1,1.94,ESE,EL DORADO,33.1924,-92.6377,3311544,9238262
568,201604,103692,619865,1,1.4,NNW,AGRICULTURAL SCHOOL,33.297,-93.2433,3317820,9314598
569,201604,103692,619866,1,0.28,N,EMMET,33.7241,-93.4698,3343446,9328188
570,201604,103692,619867,1,0.44,E,HOPE,33.6695,-93.5925,3340170,9335550
571,201604,103692,619874,1,2.9,WSW,VILLAGE,33.25,-93.0941,3315000,935646
572,201604,103692,619874,2,2.37,SW,VILLAGE,33.243,-93.0754,3314580,934524
573,201604,103696,619868,1,2.0,S,IDALOU,33.6411,-101.68,3338466,10140800
574,201604,103697,619877,1,0.51,SE,BATTIEST,34.3939,-94.9249,3423634,9455494
575,201604,103698,619901,1,2.01,S,MALTA,33.4509,-94.5223,3327054,9431338
576,201604,103698,619903,1,1.51,SW,WHATLEY,33.4627,-94.0661,3327762,943966
577,201604,103698,619905,1,1.83,NNW,SOUTH TEXARKANA,33.3931,-94.0856,3323586,945136
578,201604,103698,619906,1,1.26,WSW,WHATLEY,33.4721,-94.0696,3328326,944176
579,201604,103698,619907,1,2.78,NNE,CARTWRIGHT,32.9051,-95.3464,3254306,9520784
580,201604,103698,619908,1,0.79,NW,WINNSBORO,32.9573,-95.2904,3257438,9517424
581,201604,103698,619909,1,0.33,NW,SCROGGINS,32.9731,-95.1844,3258386,9511064
582,201604,103698,619911,1,1.04,W,EAST PT,32.8313,-95.2979,3249878,9517874
583,201604,103698,619914,1,0.22,NE,STOUT,32.872,-95.29700000000001,3252320,9517820
584,201604,103698,619915,1,5.22,N,PINEVIEW,32.9751,-95.1399,3258506,958394
585,201604,103698,619917,1,1.47,WNW,PINEVIEW,32.9042,-95.1748,3254252,9510488
586,201604,103698,619923,1,1.12,N,THOMAS,32.866,-95.0667,3251960,954002
587,201604,103698,619925,1,0.44,N,GRICE,32.8063,-95.1191,3248378,957146
588,201604,103698,619927,1,0.54,NNW,MIDWAY,32.8576,-94.9518,3251456,9457108
589,201604,103698,619929,1,0.82,W,GILMER,32.7297,-94.944,3243782,9456640
590,201604,103698,619930,1,1.09,WNW,GILMER,32.7335,-94.9483,3244010,9456898
591,201604,103698,619931,1,0.67,N,DIANA,32.7095,-94.7522,3242570,9445132
592,201604,103698,619932,1,3.89,E,HARLETON,32.6785,-94.5039,3240710,9430234
593,201604,103698,619933,1,1.18,NW,ALBA,32.7931,-95.633,3247586,9537980
594,201604,103698,619934,1,0.49,E,GOLDEN,32.7299,-95.5616,3243794,9533696
595,201604,103698,619935,1,1.95,NW,MINEOLA WISENER ARPT,32.696999999999996,-95.5467,3241820,9532802
596,201604,103698,619936,1,3.72,E,MARSHALL NORTHEAST,32.580999999999996,-94.2661,3234860,9415966
597,201604,103698,619937,1,1.86,W,OWENTOWN,32.4248,-95.2114,3225488,9512684
598,201604,103698,619938,1,0.68,SSE,WINONA,32.4905,-95.1668,3229430,9510008
599,201604,103698,619939,1,0.78,N,FLINT,32.2111,-95.3479,3212666,9520874
600,201604,103698,619940,1,0.96,ENE,NOONDAY,32.2365,-95.4055,3214190,9524330
601,201604,103698,619941,1,1.89,WSW,COPLEN,32.2388,-95.3096,3214328,9518576
602,201604,103698,619942,1,0.17,N,HENDERSON,32.1525,-94.7997,329150,9447982
603,201604,103858,621198,5,1.32,ENE,VALLEY MILLS,39.3294,-81.4284,3919764,8125704
604,201604,103858,621236,1,3.0,NW,HARRISVILLE,39.2307,-81.0896,3913842,815376
605,201604,103858,621329,1,0.0,N,BECKLEY,37.78,-81.18,3746800,8110800
606,201604,103858,621343,1,0.0,N,CONINGS,39.08,-80.77,394800,8046200
607,201604,103858,621428,1,0.0,N,LE ROY,38.9,-81.55,3854000,8133000
608,201604,103858,621737,1,1.0,NE,PARKERSBURG,39.2802,-81.5368,3916812,8132208
609,201604,103873,621277,1,0.86,NE,FREMONT ARPT,41.46,-96.52,4127600,9631200
610,201604,103873,621278,1,0.86,NW,NICKERSON,41.54,-96.49,4132400,9629400
611,201604,103873,621279,1,0.86,SE,FREMONT,41.44,-96.49,4126400,9629400
612,201604,103873,621280,1,0.52,E,MEAD,41.23,-96.49,4113800,9629400
613,201604,103873,621281,1,1.38,S,WAHOO,41.2,-96.62,4112000,9637200
614,201604,103873,621284,1,0.86,SE,BLAIR,41.54,-96.14,4132400,968400
615,201604,103873,621286,1,0.95,NNW,WEST LINCOLN,40.8432,-96.725,4050592,9643500
616,201604,103873,621290,1,1.71,ESE,WEST LINCOLN,40.82,-96.69,4049200,9641400
617,201604,103873,621290,2,0.45,ENE,ARROW ARPT,40.872,-96.6419,4052320,9638514
618,201604,103873,621291,1,0.87,NW,HOLLAM,40.54,-96.79,4032400,9647400
619,201604,103874,621301,1,3.45,N,WHITING,42.18,-96.15,4210800,969000
620,201604,103874,621304,1,4.15,W,GRANT CENTER,42.18,-96.08,4210800,964800
621,201604,103874,621306,1,71.91,NNW,MINEOLA,42.155,-96.08200000000001,429300,964920
622,201604,103874,621308,1,2.96,WSW,SHENANDOAH,40.75,-95.42,4045000,9525200
623,201604,103874,621310,1,2.51,WSW,SHENANDOAH,40.75,-95.41,4045000,9524600
624,201604,103876,621320,1,2.1,NW,LANHAM,40.02,-96.91,401200,9654600
625,201604,103876,621321,1,2.61,SW,DE WITT,40.37,-96.95,4022200,9657000
626,201604,103876,621322,1,0.0,N,FALLS CITY,40.07,-95.6,404200,9536000
627,201604,103881,621330,1,0.69,S,ROBBINSVILLE,40.21,-74.62,4012600,7437200
628,201604,103881,621683,1,0.0,N,CREAM RIDGE,40.13,-74.52,407800,7431200
629,201604,103882,621331,1,5.48,SE,BARNEGAT INLET,39.7,-74.14,3942000,748400
630,201604,103882,621332,1,1.48,NNW,BRANT BEACH,39.64,-74.21,3938400,7412600
631,201603,103123,616222,1,1.79,NW,AVON,34.1,-94.34,346000,9420400
632,201603,103123,616223,1,10.0,N,DIERKS,34.2647,-94.02,3415882,941200
633,201603,103123,616224,1,0.48,E,GILLHAM,34.171,-94.3117,3410260,9418702
634,201603,103123,616225,1,1.58,ENE,GILLHAM,34.1812,-94.296,3410872,9417760
635,201603,103123,616226,1,2.84,W,DIERKS,34.1142,-94.0692,346852,944152
636,201603,103123,616227,1,0.92,E,MT HOLLY,33.3021,-92.9543,3318126,9257258
637,201603,103123,616228,1,4.56,WSW,DIERKS,34.0965,-94.0944,345790,945664
638,201603,103123,616229,1,0.37,SW,WILTON,33.7267,-94.1552,3343602,949312
639,201603,103123,616230,1,2.22,NW,HILLSBORO,33.15,-92.53,339000,9231800
640,201603,103123,616231,1,1.37,SSW,SMACKOVER,33.3506,-92.7351,3321036,9244106
641,201603,103123,616232,1,0.47,SE,SMACKOVER,33.3647,-92.725,3321882,9243500
642,201603,103123,616233,1,0.71,NW,NEW LONDON,33.1876,-92.3382,3311256,9220292
643,201603,103123,616234,1,1.38,N,WASHINGTON,33.79,-93.68,3347400,9340800
644,201603,103123,616235,1,2.77,SW,NICK SPGS,33.1772,-92.5894,3310632,9235364
645,201603,103123,616251,1,1.05,NE,STRONG,33.1102,-92.3566,336612,9221396
646,201603,103123,616255,1,0.24,SW,LAWSON,33.1975,-92.4829,3311850,9228974
647,201603,103123,616256,1,0.67,WSW,PRESCOTT,33.7951,-93.39,3347706,9323400
648,201603,103123,616630,1,1.85,SSW,BAKER SPGS,34.294000000000004,-94.1774,3417640,9410644
649,201603,103123,616631,1,1.84,SSW,BAKER SPGS,34.294000000000004,-94.1774,3417640,9410644
650,201603,103139,616298,1,0.39,NW,EAGLETOWN,34.034,-94.5748,342040,9434488
651,201603,103140,616300,1,0.49,NNW,SPEARSVILLE,32.936,-92.6044,3256160,9236264
652,201603,103140,616301,1,0.6,NE,DOWNSVILLE,32.6269,-92.4138,3237614,9224828
653,201603,103140,616302,1,0.42,N,CHATHAM,32.3061,-92.4503,3218366,9227018
654,201603,103141,616305,1,0.95,NNE,EL DORADO,33.2133,-92.6657,3312798,9239942
655,201603,103141,616306,1,0.89,NE,TAYLOR,33.1104,-93.461,336624,9327660
656,201603,103141,616308,1,28.14,W,WILKES,33.1559,-93.4557,339354,9327342
657,201603,103141,616309,1,2.44,NNE,TEXARKANA,33.4608,-94.0292,3327648,941752
658,201603,103141,616311,1,2.45,W,TEXARKANA MACKS ARPT,33.4008,-94.0224,3324048,941344
659,201603,103141,616313,1,3.46,SSW,DOOLEY,33.4251,-93.8768,3325506,9352608
660,201603,103141,616314,1,1.06,NE,TEXARKANA,33.44,-94.0361,3326400,942166
661,201603,103142,616316,1,1.97,WNW,RUGBY,33.5145,-95.2994,3330870,9517964
662,201603,103142,616317,1,1.97,S,DETROIT,33.6415,-95.2722,3338490,9516332
663,201603,103142,616320,1,0.65,S,CLARKSVILLE,33.6107,-95.0515,3336642,953090
664,201603,103142,616322,1,0.63,SE,ENGLISH,33.6225,-94.8638,3337350,9451828
665,201603,103142,616325,1,0.5,N,ANNONA,33.5872,-94.9203,3335232,9455218
666,201603,103142,616326,1,0.82,NNW,MC COY,33.5816,-95.12299999999999,3334896,957380
667,201603,103142,616327,1,2.46,ESE,CLARKSVILLE,33.6076,-95.0099,3336456,95594
668,201603,103142,616328,1,2.76,N,DE KALB,33.54,-94.6191,3332400,9437146
669,201603,103142,616329,1,3.96,WSW,HOOKS,33.4534,-94.3157,3327204,9418942
670,201603,103142,616330,1,2.28,W,HOOKS,33.4663,-94.2893,3327978,9417358
671,201603,103142,616331,1,0.28,SSE,TEXARKANA,33.4261,-94.0487,3325566,942922
672,201603,103142,616332,1,0.44,NW,MT VERNON,33.1851,-95.2345,3311106,9514070
673,201603,103142,616333,1,2.48,ENE,THEDFORD,32.4977,-95.363,3229862,9521780
674,201603,103142,616335,1,2.58,SSW,JONESVILLE,32.4846,-94.1141,3229076,946846
675,201603,103142,616353,1,0.64,SE,BAGWELL,33.6626,-95.1633,3339756,959798
676,201603,103144,616355,1,0.23,WNW,VANCEVILLE,32.601,-93.7338,3236060,9344028
677,201603,103144,616356,1,0.59,S,DIXIE INN,32.5916,-93.3314,3235496,9319884
678,201603,103176,616556,1,4.49,SW,ARMSTRONG,34.0,-96.39,3400,9623400
679,201603,103176,616557,1,0.0,N,BOKCHITO,34.02,-96.14,341200,968400
680,201603,103177,617890,1,1.84,WSW,LAWTON,34.6,-98.42,3436000,9825200
681,201603,103177,617891,1,0.0,N,GRANDFIELD,34.23,-98.69,3413800,9841400
682,201603,103177,617892,1,2.07,N,DAVIDSON,34.27,-99.08,3416200,994800
683,201603,103186,617080,1,0.11,NNE,PROVENCAL,31.6515,-93.1993,3139090,9311958
684,201603,103186,617081,1,1.17,SW,NATCHITOCHES,31.7597,-93.0957,3145582,935742
685,201603,103186,617082,1,0.51,SE,NATCHEZ,31.6741,-93.0447,3140446,932682
686,201603,103186,617083,1,0.54,SW,NATCHITOCHES,31.7642,-93.086,3145852,935160
687,201603,103186,617084,1,1.44,SW,LUCAS,32.3829,-93.7139,3222974,9342834
688,201603,103186,617085,1,1.47,NE,LA ROSEN,32.4133,-93.7804,3224798,9346824
689,201603,103186,617086,1,3.0,SSW,LAKE IATT,31.5791,-92.667,3134746,9240020
690,201603,103186,617087,1,0.65,SW,GRAND ECORE,31.8123,-93.0863,3148738,935178
691,201603,103186,617088,1,0.2,SE,QUITMAN,32.348,-92.7175,3220880,9243050
692,201603,103186,617089,1,1.94,SSE,SHREVEPORT,32.4528,-93.7416,3227168,9344496
693,201603,103186,617090,1,1.45,E,LA ROSEN,32.3983,-93.7752,3223898,9346512
694,201603,103186,617943,1,2.68,N,CROSS LAKE,32.5388,-93.8713,3232328,9352278
695,201603,103186,617943,2,1.5,ESE,METCALF,32.3905,-93.8768,3223430,9352608
696,201603,103186,617943,3,0.49,WSW,LUCAS,32.3975,-93.7079,3223850,9342474
697,201603,103186,617943,4,2.17,ENE,SHREVEPORT,32.4942,-93.7168,3229652,9343008
698,201603,103186,617943,5,0.65,NNE,COOPER RD,32.5388,-93.7958,3232328,9347748
699,201609,108407,649321,1,1.97,SE,STAVETOWN,39.3797,-84.994,3922782,8459640
700,201604,103882,621333,1,3.19,NNE,BRANT BEACH,39.66,-74.17,3939600,7410200
701,201604,103888,621377,1,0.94,SW,GUILDERLAND CENTER,42.6918,-73.9847,4241508,7359082
702,201604,103888,621378,1,0.61,S,SCHENECTADY,42.7914,-73.9179,4247484,7355074
703,201604,103888,621379,1,0.35,E,SCHENECTADY,42.7993,-73.9131,4247958,7354786
704,201604,103888,621380,1,0.81,SE,SCOTIA,42.8227,-73.9575,4249362,7357450
705,201604,103888,621381,1,0.67,S,HAWTHORNE HILL,42.7904,-73.8726,4247424,7352356
706,201604,103888,621382,1,1.74,SSW,HAWTHORNE HILL,42.7767,-73.8833,4246602,7352998
707,201604,103888,621384,1,1.66,SE,GLENRIDGE,42.8513,-73.8795,4251078,7352770
708,201604,103888,621385,1,1.14,E,CLINTON HGTS,42.62,-73.7275,4237200,7343650
709,201604,103888,621386,1,1.11,S,SNAKE HILL,42.9841,-73.7469,4259046,7344814
710,201604,103888,621388,1,1.57,ENE,SARATOGA SPGS CO ARP,43.0578,-73.8409,433468,7350454
711,201604,103888,621390,1,0.68,SSE,GLENS FALLS,43.3107,-73.6458,4318642,7338748
712,201604,103888,621393,1,0.54,NE,GLENS FALLS,43.3255,-73.6422,4319530,7338532
713,201604,103888,621402,1,0.73,NNE,GLENS FALLS,43.3289,-73.6422,4319734,7338532
714,201604,103888,621403,1,0.23,ENE,GLENS FALLS,43.3213,-73.6458,4319278,7338748
715,201604,103888,621406,1,1.8,WSW,VAUGHNS CORNERS,43.372,-73.6041,4322320,7336246
716,201604,103888,621411,1,1.2,SSW,SOUTH GLENS FALLS,43.2835,-73.6575,4317010,7339450
717,201604,103888,621416,1,2.38,NNE,HARTMAN,43.3018,-73.752,4318108,7345120
718,201604,103888,621417,1,1.69,N,REYNOLDS CORNERS,43.2745,-73.6512,4316470,7339072
719,201604,103888,621419,1,0.79,NNW,REYNOLDS CORNERS,43.2602,-73.657,4315612,7339420
720,201604,103888,621420,1,0.39,WSW,SOUTH CORINTH,43.1981,-73.8873,4311886,7353238
721,201604,103888,621421,1,0.45,NE,GLENS FALLS,43.3252,-73.6445,4319512,7338670
722,201604,103888,621422,1,0.34,NE,GLENS FALLS,43.3236,-73.6454,4319416,7338724
723,201604,103888,621424,1,0.46,ENE,SCHENECTADY,42.8023,-73.9116,4248138,7354696
724,201604,103888,621426,1,1.67,WSW,WYATTS,42.84,-74.03,4250400,741800
725,201604,103632,619394,1,2.2,NNE,BELLVILLE,31.619,-84.8746,3137140,8452476
726,201604,103632,619394,2,1.37,ENE,SUTTONS CORNER,31.6063,-84.8179,3136378,8449074
727,201604,103632,619395,1,2.83,W,MOYE,31.6063,-84.8179,3136378,8449074
728,201604,103632,619395,2,2.05,ENE,DICKEY,31.5646,-84.6296,3133876,8437776
729,201604,103633,619396,1,2.29,SE,EVA,28.3,-81.8,2818000,8148000
730,201604,103633,619397,1,3.02,SSE,DAVENPORT,28.12,-81.58,287200,8134800
731,201604,103633,619398,1,3.69,NE,LAKE MARION LAKE,28.11,-81.48,286600,8128800
732,201604,103633,619399,1,3.91,ENE,LAKE MARION LAKE,28.1,-81.47,286000,8128200
733,201604,103633,619400,1,1.4,ENE,LAKE WALES MUNI ARPT,27.89,-81.6,2753400,8136000
734,201604,103633,619401,1,1.22,E,HAINES CITY,28.11,-81.61,286600,8136600
735,201604,103642,619406,1,0.56,E,CLAYTON,36.45,-103.17,3627000,10310200
736,201604,103642,619407,1,3.33,E,SENECA,36.63,-103.07,3637800,1034200
737,201604,103643,624184,1,0.0,N,BROWNS CROSSROADS,31.41,-85.52,3124600,8531200
738,201604,103643,624259,1,1.15,WNW,GENEVA MUNICIPAL ARPT,31.0571,-85.8775,313426,8552650
739,201604,103643,624259,2,1.43,WNW,GENEVA MUNICIPAL ARPT,31.0572,-85.8827,313432,8552962
740,201604,103643,624259,3,1.26,W,GENEVA MUNICIPAL ARPT,31.0521,-85.8812,313126,8552872
741,201604,103643,624259,4,1.08,W,GENEVA MUNICIPAL ARPT,31.0517,-85.8781,313102,8552686
742,201604,103643,624260,1,0.87,NNE,CURRYTOWN,31.2821,-85.5157,3116926,8530942
743,201604,103643,624260,2,0.73,SE,CURRYTOWN,31.2624,-85.5114,3115744,8530684
744,201604,103643,624260,3,1.89,E,CURRYTOWN,31.267,-85.4882,3116020,8529292
745,201604,103643,624260,4,1.9,S,MIDLAND CITY,31.2825,-85.4898,3116950,8529388
746,201604,103643,624262,1,1.73,N,WICKSBURG,31.225,-85.6173,3113500,8537038
747,201604,103643,624262,2,2.01,NNE,WICKSBURG,31.2257,-85.604,3113542,8536240
748,201604,103643,624262,3,2.47,NNE,WICKSBURG,31.2329,-85.6034,3113974,8536204
749,201604,103643,624262,4,2.06,SSE,POWER DAM ROAD,31.2351,-85.6209,3114106,8537254
750,201604,103643,624263,1,0.69,N,GRIMES,31.31,-85.44,3118600,8526400
751,201604,103643,624263,2,0.12,SW,GRIMES,31.299,-85.4417,3117940,8526502
752,201604,103643,624263,3,1.07,E,GRIMES,31.3016,-85.42200000000001,3118096,8525320
753,201604,103643,624263,4,0.9,ESE,(DHN)NAPIER FIELD,31.3138,-85.4266,3118828,8525596
754,201604,103643,624264,1,1.37,WSW,CURRYTOWN,31.26,-85.54,3115600,8532400
755,201604,103643,624264,2,1.85,WSW,CURRYTOWN,31.2631,-85.5503,3115786,8533018
756,201604,103643,624264,3,1.41,W,CURRYTOWN,31.2684,-85.5438,3116104,8532628
757,201604,103643,624264,4,1.18,WSW,CURRYTOWN,31.2643,-85.5388,3115858,8532328
758,201604,103643,624265,1,0.69,N,KINSTON,31.22,-86.17,3113200,8610200
759,201604,103643,624265,2,1.14,E,KINSTON,31.2122,-86.1508,3112732,869048
760,201604,103643,624265,3,1.68,NE,KINSTON,31.2265,-86.149,3113590,868940
761,201604,103643,624265,4,1.14,N,KINSTON,31.2262,-86.1665,3113572,869990
762,201604,103643,624266,1,1.25,NNW,CURRYTOWN,31.2856,-85.5308,3117136,8531848
763,201604,103643,624266,2,1.14,N,CURRYTOWN,31.2863,-85.5228,3117178,8531368
764,201604,103643,624266,3,1.48,SE,PINCKARD,31.2941,-85.5232,3117646,8531392
765,201604,103643,624266,4,1.17,SSE,PINCKARD,31.2957,-85.5295,3117742,8531770
766,201604,103643,624267,1,1.2,ESE,PERA,31.1232,-86.0714,317392,864284
767,201604,103643,624267,2,0.62,W,SAMSON LOGAN MUNICIPAL ARPT,31.0988,-86.0703,315928,864218
768,201604,103643,624267,3,1.68,ESE,SAMSON,31.0985,-86.0151,315910,86906
769,201604,103643,624267,4,1.15,WNW,SELLERSVILLE,31.1274,-86.0175,317644,861050
770,201604,103643,624268,1,2.46,ESE,GREEN ACRES,31.21,-85.43,3112600,8525800
771,201604,103643,624268,2,2.4,E,GREEN ACRES,31.2138,-85.4301,3112828,8525806
772,201604,103643,624268,3,2.2,ESE,GREEN ACRES,31.2133,-85.4336,3112798,8526016
773,201604,103643,624268,4,2.35,ENE,PETERMAN,31.2097,-85.4319,3112582,8525914
774,201604,103643,624269,1,2.1,SSW,POWER DAM ROAD,31.2347,-85.6595,3114082,8539570
775,201604,103643,624269,2,2.79,WNW,WICKSBURG,31.2221,-85.6595,3113326,8539570
776,201604,103643,624269,3,2.06,NW,WICKSBURG,31.2221,-85.6434,3113326,8538604
777,201604,103643,624269,4,1.99,S,POWER DAM ROAD,31.2312,-85.6419,3113872,8538514
778,201604,103643,624270,1,1.51,N,SLOCOMB,31.1218,-85.5881,317308,8535286
779,201604,103643,624270,2,1.86,NNW,SLOCOMB,31.1231,-85.6062,317386,8536372
780,201604,103643,624270,3,0.92,W,SLOCOMB,31.0982,-85.6055,315892,8536330
781,201604,103643,624270,4,0.37,ESE,SLOCOMB,31.098000000000003,-85.5842,315880,8535052
782,201604,103698,619943,1,2.28,ENE,MONROE,32.3366,-94.6918,3220196,9441508
783,201604,103698,619944,1,0.44,WNW,PINEHILL,32.1022,-94.6071,326132,9436426
784,201604,103698,619945,1,1.29,SSW,SMITH,32.8134,-94.98,3248804,9458800
785,201604,103701,619946,1,2.17,N,ROCKY BRANCH,32.7114,-92.1973,3242684,9211838
786,201604,103701,619947,1,3.58,WNW,COOLEY,32.8855,-92.6889,3253130,9241334
787,201604,103701,619947,2,3.28,WSW,BERNICE,32.7978,-92.6999,3247868,9241994
788,201604,103701,619947,3,0.29,SSE,ROCKY BRANCH,32.6765,-92.1973,3240590,9211838
789,201604,103701,619947,4,1.12,E,MARION,32.9029,-92.211,3254174,9212660
790,201604,103701,619948,1,1.99,E,LAWHON,32.3771,-93.186,3222626,9311160
791,201604,103701,619948,2,3.57,SSE,JAMESTOWN,32.3063,-93.1874,3218378,9311244
792,201604,103701,619948,3,1.89,S,MT OLIVE,32.3029,-92.7953,3218174,9247718
793,201604,103701,619948,4,2.82,NNE,UNION,32.416,-92.7974,3224960,9247844
794,201604,103701,619949,1,1.4,SE,LORRAINE,32.4568,-94.0117,3227408,94702
795,201604,103701,619949,2,2.61,WSW,GREENWOOD,32.4136,-94.0104,3224816,94624
796,201604,103701,619949,3,1.93,WNW,METCALF,32.4154,-93.9276,3224924,9355656
797,201604,103701,619949,4,0.99,WNW,FLOURNEY,32.4574,-93.9345,3227444,9356070
798,201604,103701,619950,1,2.42,W,EUREKA,32.5683,-92.3916,3234098,9223496
799,201604,103701,619950,2,2.27,WNW,CADERVILLE,32.4392,-92.3875,3226352,9223250
800,201604,103701,619950,3,4.35,ESE,PINE GROVE,32.416,-91.9872,3224960,9159232
801,201604,103701,619950,4,0.85,SW,SWARTZ,32.5712,-91.9803,3234272,9158818
802,201604,103701,619951,1,1.08,WNW,DREW,32.5562,-92.2371,3233372,9214226
803,201604,103701,619951,2,3.39,SE,CHENIERE,32.4624,-92.2426,3227744,9214556
804,201604,103701,619951,3,1.58,ENE,PINE GROVE,32.46,-92.0256,3227600,921536
805,201604,103701,619951,4,1.51,SW,FRIZZELL,32.5556,-92.0194,3233336,921164
806,201604,103701,619952,1,1.42,W,HIGHLAND PARK,32.5486,-92.1444,3232916,928664
807,201604,103701,619952,2,2.43,SSE,MONROE,32.4664,-92.10799999999999,3227984,926480
808,201604,103701,619952,3,1.28,ESE,(MLU)MONROE RGNL ARP,32.5127,-92.0098,3230762,92588
809,201604,103701,619952,4,0.67,ESE,HAMMOCK,32.6279,-92.0187,3237674,921122
810,201604,103703,619981,1,1.31,WSW,PETROLEUM,36.69,-86.27,3641400,8616200
811,201604,103703,619982,1,2.32,WNW,HARLAN XRDS,36.66,-85.74,3639600,8544400
812,201604,103703,619983,1,2.61,ESE,RANDOLPH,36.95,-85.66,3657000,8539600
813,201604,103703,619984,1,0.89,NE,TANBARK,36.73,-85.37,3643800,8522200
814,201604,103703,619985,1,0.89,SE,WAGO,36.71,-85.16,3642600,859600
815,201604,103888,621426,2,1.38,S,SCOTIA GAY VLY ARPT,42.85,-74.03,4251000,741800
816,201604,103888,621437,1,0.51,SW,GLENRIDGE,42.864,-73.9059,4251840,7354354
817,201604,103899,621459,1,1.49,NNW,DUNCAN,34.52,-97.97,3431200,9758200
818,201604,103899,621460,1,0.0,N,DAVIDSON,34.24,-99.08,3414400,994800
819,201604,103899,621462,1,0.0,N,(HBR)HOBART AIRPORT,34.99,-99.05,3459400,993000
820,201604,103899,621463,1,5.13,NNE,WALTERS ARPT,34.44,-98.38,3426400,9822800
821,201604,103899,621464,1,3.5,N,SEWARD,35.85,-97.48,3551000,9728800
822,201604,103899,621465,1,0.0,N,BLACKWELL,36.8,-97.28,3648000,9716800
823,201604,103899,621466,1,1.38,S,REED,34.88,-99.7,3452800,9942000
824,201604,103899,621468,1,7.77,SW,HARDY,36.9,-96.91,3654000,9654600
825,201604,103899,621469,1,2.2,SE,TIPTON ARPT,34.44,-99.14,3426400,998400
826,201604,103899,621470,1,0.0,N,RANDLETT,34.18,-98.46,3410800,9827600
827,201604,103899,621471,1,0.0,N,ELDORADO,34.47,-99.65,3428200,9939000
828,201604,103899,621472,1,5.64,NNE,BOONE,34.98,-98.44,3458800,9826400
829,201604,103899,621473,1,7.94,SSE,TEMPLE,34.16,-98.19,349600,9811400
830,201604,103899,621475,1,3.07,NE,LAKE ELLSWORTH DAM,34.82,-98.33,3449200,9819800
831,201604,103899,621476,1,2.84,W,(FSI)FORT SILL,34.67,-98.43,3440200,9825800
832,201604,103899,621477,1,2.27,W,CYRIL,34.9,-98.24,3454000,9814400
833,201604,103899,621479,1,0.69,S,GERONIMO,34.47,-98.38,3428200,9822800
834,201604,103899,621481,1,2.07,N,AGAWAM,34.9,-97.95,3454000,9757000
835,201604,103899,621482,1,1.84,WSW,CYRIL,34.89,-98.23,3453400,9813800
836,201604,103899,621483,1,2.15,NNW,DUNCAN,34.53,-97.97,3431800,9758200
837,201604,103899,621484,1,2.15,NNW,DUNCAN,34.53,-97.97,3431800,9758200
838,201604,103899,621485,1,1.49,NNW,DUNCAN,34.52,-97.97,3431200,9758200
839,201604,103899,621486,1,0.57,E,FREDERICK,34.39,-99.01,3423400,99600
840,201604,103899,621488,1,1.83,WNW,LIMA,35.18,-96.63,3510800,9637800
841,201604,103899,621489,1,2.98,NNE,SPARKS,35.65,-96.8,3539000,9648000
842,201604,103899,621490,1,1.5,NNE,ARDMORE,34.19,-97.13,3411400,977800
843,201609,108407,649319,2,0.3,NNW,NAPOLEON,39.2042,-85.3315,3912252,8519890
844,201609,108407,649319,3,0.3,N,NAPOLEON,39.2044,-85.3297,3912264,8519782
845,201604,103703,619986,1,2.15,NNW,WATAUGA,36.85,-85.08,3651000,854800
846,201604,103706,620005,1,5.0,W,GIRARD,33.35,-100.7566,3321000,10045396
847,201604,103706,620006,1,2.04,SW,CLAIREMONT,33.1509,-100.777,339054,10046620
848,201604,103706,620007,1,0.0,N,LOCKNEY,34.12,-101.43,347200,10125800
849,201604,103706,620008,1,0.0,N,SPUR,33.48,-100.85,3328800,10051000
850,201604,103714,620027,1,0.0,N,TULIA,34.53,-101.77,3431800,10146200
851,201604,103714,620028,1,3.02,N,FLOYDADA,34.0236,-101.3253,341416,10119518
852,201604,103714,620030,1,1.67,W,BROADWAY,33.6995,-101.09899999999999,3341970,1015940
853,201604,103714,620031,1,0.0,N,DICKENS,33.62,-100.83,3337200,10049800
854,201604,103714,620032,1,0.0,N,SPUR,33.48,-100.85,3328800,10051000
855,201604,103714,620033,1,3.4,SE,GIRARD,33.3195,-100.6238,3319170,10037428
856,201604,103714,620034,1,8.17,NE,AUGUSTUS,33.2105,-101.1965,3312630,10111790
857,201604,103718,620058,1,0.52,W,BERNICE,32.8211,-92.6588,3249266,9239528
858,201604,103718,620059,1,3.42,W,CANBEAL,32.82,-92.4089,3249200,9224534
859,201604,103718,620060,1,0.95,NNE,QUIGLEY,32.8633,-92.2956,3251798,9217736
860,201604,103718,620061,1,0.63,W,QUIGLEY,32.8515,-92.3107,3251090,9218642
861,201604,103718,620062,1,3.52,NE,DUBACH,32.7315,-92.6024,3243890,9236144
862,201604,103718,620063,1,1.07,NE,DOWNSVILLE,32.6328,-92.4097,3237968,9224582
863,201604,103718,620065,1,2.13,S,POINT,32.6192,-92.2806,3237152,9216836
864,201604,103718,620066,1,0.94,ENE,FRIZZELL,32.5768,-91.986,3234608,9159160
865,201604,103719,620068,1,1.21,SSW,SHREVEPORT DOWNTOWN,32.5133,-93.7558,3230798,9345348
866,201604,103719,620068,2,1.23,SSW,SHREVEPORT DOWNTOWN,32.5128,-93.7554,3230768,9345324
867,201604,103719,620068,3,1.19,SSW,SHREVEPORT DOWNTOWN,32.5133,-93.7544,3230798,9345264
868,201604,103719,620068,4,1.16,SSW,SHREVEPORT DOWNTOWN,32.5137,-93.755,3230822,9345300
869,201604,103719,620069,1,1.83,WSW,DIXIE GARDENS,32.4439,-93.7305,3226634,9343830
870,201604,103719,620069,2,1.84,WSW,DIXIE GARDENS,32.443000000000005,-93.7305,3226580,9343830
871,201604,103719,620069,3,1.77,WSW,DIXIE GARDENS,32.4431,-93.7293,3226586,9343758
872,201604,103719,620069,4,1.77,WSW,DIXIE GARDENS,32.444,-93.7295,3226640,9343770
873,201604,103719,620070,1,0.28,ENE,SHREVEPORT,32.4821,-93.7458,3228926,9344748
874,201604,103719,620070,2,0.31,NE,SHREVEPORT,32.4827,-93.7458,3228962,9344748
875,201604,103719,620070,3,0.29,NE,SHREVEPORT,32.4827,-93.7463,3228962,9344778
876,201604,103719,620070,4,0.26,NE,SHREVEPORT,32.4821,-93.7463,3228926,9344778
877,201604,103719,620071,1,1.23,S,LA ROSEN,32.3823,-93.7977,3222938,9347862
878,201604,103719,620071,2,1.23,S,LA ROSEN,32.3823,-93.7974,3222938,9347844
879,201604,103719,620071,3,1.19,S,LA ROSEN,32.3829,-93.7974,3222974,9347844
880,201604,103719,620071,4,1.19,S,LA ROSEN,32.3829,-93.7977,3222974,9347862
881,201604,103719,620072,1,2.21,WNW,FORBING,32.4141,-93.7641,3224846,9345846
882,201604,103719,620072,2,2.14,WNW,FORBING,32.4116,-93.7641,3224696,9345846
883,201604,103719,620072,3,2.06,WNW,FORBING,32.4118,-93.7625,3224708,9345750
884,201604,103719,620072,4,2.13,WNW,FORBING,32.414,-93.7625,3224840,9345750
885,201604,103719,620073,1,1.32,ESE,JEWELLA,32.4703,-93.7805,3228218,9346830
886,201604,103719,620073,2,1.36,ESE,JEWELLA,32.4704,-93.7797,3228224,9346782
887,201604,103719,620073,3,1.32,ESE,JEWELLA,32.4713,-93.7798,3228278,9346788
888,201604,103719,620073,4,1.28,ESE,JEWELLA,32.4714,-93.7805,3228284,9346830
889,201604,103719,620074,1,2.85,SSW,SHREVEPORT,32.4433,-93.7722,3226598,9346332
890,201604,103719,620074,2,2.9,SSW,SHREVEPORT,32.4424,-93.7722,3226544,9346332
891,201604,103719,620074,3,2.63,S,SHREVEPORT,32.4426,-93.7584,3226556,9345504
892,201604,103719,620074,4,2.59,S,SHREVEPORT,32.4433,-93.7586,3226598,9345516
893,201604,103719,620075,1,1.62,SE,JEWELLA,32.4608,-93.7839,3227648,9347034
894,201604,103719,620075,2,1.6,SE,JEWELLA,32.4612,-93.78399999999999,3227672,9347040
895,201604,103719,620075,3,1.57,SE,JEWELLA,32.4612,-93.785,3227672,9347100
896,201604,103719,620075,4,1.59,SSE,JEWELLA,32.4609,-93.785,3227654,9347100
897,201604,103722,620076,1,4.11,NNE,WALSH,32.421,-92.8837,3225260,9253022
898,201604,103722,620076,2,4.09,NNE,WALSH,32.4204,-92.8835,3225224,9253010
899,201604,103722,620076,3,4.17,NNE,WALSH,32.4212,-92.8822,3225272,9252932
900,201604,103722,620076,4,4.17,NNE,WALSH,32.4214,-92.8825,3225284,9252950
901,201604,103725,620078,1,2.1,N,GILBERT,31.3304,-94.82,3119824,9449200
902,201604,103725,620080,1,0.75,N,REDLAND,31.4308,-94.7297,3125848,9443782
903,201604,103756,620308,1,0.0,N,MIDDLEPORT,39.0,-82.05,3900,823000
904,201604,103899,621491,1,0.0,N,MANNSVILLE,34.19,-96.88,3411400,9652800
905,201604,103899,621492,1,7.94,NW,OAKLAND,34.17,-96.9,3410200,9654000
906,201604,103899,621493,1,0.0,N,TISHOMINGO,34.23,-96.68,3413800,9640800
907,201604,103899,621494,1,3.86,SSE,ATOKA,34.33,-96.1,3419800,966000
908,201604,103899,621495,1,4.87,N,WILLIS,33.96,-96.82,3357600,9649200
909,201604,103899,621496,1,0.0,N,NOBLE,35.14,-97.39,358400,9723400
910,201604,103899,621497,1,0.0,N,NOBLE,35.14,-97.39,358400,9723400
911,201604,103899,621498,1,0.69,N,NOBLE,35.15,-97.39,359000,9723400
912,201604,103899,621575,1,0.0,N,WARREN,34.78,-99.21,3446800,9912600
913,201604,103899,621869,1,0.0,N,CACHE,34.63,-98.63,3437800,9837800
914,201604,103899,621870,1,0.0,N,FAXON,34.46,-98.58,3427600,9834800
915,201604,103899,621871,1,0.0,N,HULEN,34.5,-98.22,3430000,9813200
916,201604,103900,621829,1,1.84,NNW,ALTUS,34.6638,-99.3446,3439828,9920676
917,201604,103900,621829,2,0.84,WNW,(LTS)ALTUS AFB,34.6638,-99.3041,3439828,9918246
918,201604,103900,621829,3,2.01,S,(LTS)ALTUS AFB,34.631,-99.2903,3437860,9917418
919,201604,103900,621829,4,1.44,S,ALTUS,34.6194,-99.3332,3437164,9919992
920,201604,103900,621829,5,1.62,SW,ALTUS,34.6245,-99.3514,3437470,9921084
921,201604,103900,621831,1,0.69,N,HEADRICK,34.64,-99.14,3438400,998400
922,201604,103900,624392,1,7.81,NE,HEADRICK,34.6954,-99.02799999999999,3441724,991680
923,201604,103900,624392,2,13.94,ENE,HEADRICK,34.6897,-98.9058,3441382,9854348
924,201604,103900,624392,3,15.21,E,HEADRICK,34.5931,-98.8763,3435586,9852578
925,201604,103900,624392,4,7.36,ESE,HEADRICK,34.6006,-99.0157,3436036,99942
926,201604,103900,624393,1,21.21,ENE,HEADRICK,34.7643,-98.8042,3445858,9848252
927,201604,103900,624393,2,29.94,ENE,HEADRICK,34.8139,-98.6627,3448834,9839762
928,201604,103900,624393,3,42.24,ENE,HEADRICK,34.7924,-98.4231,3447544,9825386
929,201604,103900,624393,4,39.98,E,HEADRICK,34.6898,-98.4403,3441388,9826418
930,201604,103900,624393,5,21.23,E,HEADRICK,34.6853,-98.7726,3441118,9846356
931,201604,103924,621832,1,2.76,S,MEAD,33.96,-96.51,3357600,9630600
932,201604,103925,621561,1,2.76,S,CROWELL,33.94,-99.72,3356400,9943200
933,201604,103925,621562,1,1.5,SSE,TRUSCOTT,33.73,-99.8,3343800,9948000
934,201604,103925,621563,1,2.82,NNE,TRUSCOTT,33.79,-99.8,3347400,9948000
935,201604,103925,621564,1,0.0,N,LOCKETT,34.08,-99.37,344800,9922200
936,201604,103925,621565,1,4.58,E,LOCKETT,34.08,-99.29,344800,9917400
937,201604,103925,621566,1,0.9,SW,(SPS)SHEPPARD AFB,33.98,-98.5,3358800,9830000
938,201604,103925,621567,1,0.9,SW,(SPS)SHEPPARD AFB,33.98,-98.5,3358800,9830000
939,201604,103757,620309,1,0.0,N,(HTS)TRI ST ARPT HNT,38.37,-82.55,3822200,8233000
940,201604,103757,620310,1,2.0,N,PARKERSBURG,39.299,-81.55,3917940,8133000
941,201604,103765,620338,1,0.56,SSW,DEWEY BEACH,38.6922,-75.0727,3841532,754362
942,201604,103773,620379,1,2.92,WSW,BELEN,34.65,-106.83,3439000,10649800
943,201604,103773,620380,1,0.89,NE,(CAO)CLAYTON ARPT,36.46,-103.14,3627600,1038400
944,201609,108407,649321,2,2.33,WNW,CEDAR GROVE,39.3842,-84.9696,3923052,8458176
945,201609,108407,649321,3,0.94,ENE,BROOKVILLE,39.4232,-85.0029,3925392,85174
946,201604,103790,620526,1,2.18,SW,(SAF)SANTA FE MUNI AIRPORT,35.6,-106.11,3536000,1066600
947,201604,103790,620529,1,4.43,WSW,MILLS,36.05,-104.32,363000,10419200
948,201604,103792,620538,1,49.36,NNW,GASPARILLA PASS,27.439,-82.639,2726340,8238340
949,201604,103792,620538,2,47.81,NNW,GASPARILLA PASS,27.421,-82.62299999999999,2725260,8237380
950,201604,103792,620539,1,50.49,NNW,GASPARILLA PASS,27.421999999999997,-82.711,2725320,8242660
951,201604,103792,620539,2,47.44,NNW,GASPARILLA PASS,27.396,-82.663,2723760,8239780
952,201604,103796,620635,1,0.85,NNW,MACON COMMUNITY PARK,30.5015,-84.2751,3030090,8416506
953,201604,103796,620635,2,0.93,NW,MACON COMMUNITY PARK,30.5011,-84.2787,3030066,8416722
954,201604,103796,620635,3,1.07,NNW,MACON COMMUNITY PARK,30.5037,-84.2783,3030222,8416698
955,201604,103796,620635,4,0.98,NNW,MACON COMMUNITY PARK,30.5037,-84.274,3030222,8416440
956,201604,103796,620636,1,3.82,SSE,CHAIRES CROSSING,30.3711,-84.0802,3022266,844812
957,201604,103796,620636,2,3.67,SSE,CHAIRES CROSSING,30.3718,-84.0841,3022308,845046
958,201604,103796,620636,3,3.87,SSE,CHAIRES CROSSING,30.3683,-84.0848,3022098,845088
959,201604,103796,620636,4,3.93,SSE,CHAIRES CROSSING,30.369,-84.0806,3022140,844836
960,201604,103796,624273,1,2.74,WNW,ROYALS CROSSROADS,30.99,-86.03,3059400,861800
961,201604,103796,624273,2,5.98,W,PONCE DE LEON,30.71,-86.03,3042600,861800
962,201604,103796,624273,3,4.15,S,WESTVILLE,30.71,-85.85,3042600,8551000
963,201604,103796,624273,4,2.07,S,GRITNEY,30.8,-85.83,3048000,8549800
964,201604,103796,624273,5,4.38,WNW,BONIFAY,30.8,-85.75,3048000,8545000
965,201604,103796,624273,6,2.16,SSW,BONIFAY,30.75,-85.69,3045000,8541400
966,201604,103796,624273,7,1.38,N,BONIFAY TRI COUNTY ARPT,30.86,-85.6,3051600,8536000
967,201604,103796,624273,8,1.91,ENE,COBB CROSSROADS,30.99,-85.51,3059400,8530600
968,201604,103796,624275,1,0.38,ESE,LIVE OAK,30.5679,-85.854,3034074,8551240
969,201604,103796,624275,2,1.13,NNW,CARYVILLE,30.7855,-85.8161,3047130,8548966
970,201604,103796,624275,3,2.18,NNE,CARYVILLE,30.7973,-85.7916,3047838,8547496
971,201604,103796,624275,4,2.87,E,BAHOMA,30.8073,-85.4517,3048438,8527102
972,201604,103796,624275,5,0.76,SSE,HOLMES VALLEY,30.5601,-85.7346,3033606,8544076
973,201604,103796,624281,1,2.74,WNW,BROWNTOWN,31.0,-85.5,3100,8530000
974,201604,103796,624281,2,5.93,W,RICHTER CROSSROADS,30.83,-85.6,3049800,8536000
975,201604,103796,624281,3,3.28,WSW,COMPASS LAKE,30.57,-85.44,3034200,8526400
976,201604,103796,624281,4,3.89,SSW,SINK CREEK,30.57,-85.18,3034200,8510800
977,201604,103796,624281,5,1.78,W,SINK CREEK,30.62,-85.18,3037200,8510800
978,201604,103796,624281,6,6.02,SSE,INWOOD,30.62,-84.93,3037200,8455800
979,201604,103796,624281,7,2.38,E,SNEADS,30.71,-84.88,3042600,8452800
980,201604,103796,624281,8,4.15,N,HORNSVILLE,31.0,-85.0,3100,8500
981,201604,103796,624284,1,3.61,NW,CLEAR SPRINGS,31.0,-86.39,3100,8623400
982,201604,103796,624284,2,0.6,W,VILLA TASSO,30.46,-86.39,3027600,8623400
983,201604,103796,624284,3,0.91,SW,PORTLAND,30.5,-86.2,3030000,8612000
984,201604,103796,624284,4,0.39,NNE,BUNKER,30.3848,-86.0765,3023088,864590
985,201604,103796,624284,5,3.37,WSW,EBRO,30.42,-85.9217,3025200,8555302
986,201604,103796,624284,6,4.06,NW,HINSONS CROSSROADS,30.7,-85.89,3042000,8553400
987,201604,103796,624284,7,0.0,N,ARGYLE,30.71,-86.04,3042600,862400
988,201604,103796,624284,8,3.51,N,DARLINGTON,30.99,-86.04,3059400,862400
989,201604,103798,620646,1,0.88,NW,MAYS LICK,38.53,-83.84,3831800,8350400
990,201604,103799,620648,1,0.0,N,LANCASTER,39.72,-82.6,3943200,8236000
991,201604,103799,625290,1,0.0,N,LANCASTER,39.72,-82.6,3943200,8236000
992,201609,108407,649319,4,0.42,N,NAPOLEON,39.2061,-85.3295,3912366,8519770
993,201604,103643,624271,1,0.0,N,DOTHAN,31.22,-85.39,3113200,8523400
994,201604,103643,624272,1,3.61,NW,LOWERY,31.19,-86.19,3111400,8611400
995,201604,103643,624272,2,5.81,SSW,HACODA,30.99,-86.19,3059400,8611400
996,201604,103643,624272,3,3.64,SE,FADETTE,31.0,-85.49,3100,8529400
997,201604,103643,624272,4,4.15,N,LIGHT,31.2,-85.49,3112000,8529400
998,201604,103644,620615,1,4.8,W,KINDERLOU,30.79,-83.44,3047400,8326400
999,201604,103644,620615,2,4.64,WSW,KINDERLOU,30.7843,-83.436,3047058,8326160
1000,201604,103644,620615,3,4.94,WSW,KINDERLOU,30.7797,-83.4399,3046782,8326394
1001,201604,103644,620615,4,4.99,W,KINDERLOU,30.7898,-83.4433,3047388,8326598
1002,201604,103644,620616,1,2.37,E,MERRILLVILLE,30.94,-83.83,3056400,8349800
1003,201604,103644,620618,1,1.91,ENE,THOMASVILLE,30.84,-83.95,3050400,8357000
1004,201604,103644,620619,1,0.0,N,PAVO,30.95,-83.73,3057000,8343800
1005,201604,103644,620620,1,2.39,SSE,MORVEN,30.91,-83.47,3054600,8328200
1006,201604,103644,620621,1,0.4,NE,HAHIRA,30.9939,-83.3651,3059634,8321906
1007,201604,103644,620622,1,2.35,E,I-75 AT EXIT 22,30.8851,-83.3108,3053106,8318648
1008,201604,103644,620623,1,2.16,S,WEBER,31.1987,-83.1301,3111922,837806
1009,201604,103644,620624,1,0.0,N,RAY CITY,31.07,-83.19,314200,8311400
1010,201604,103644,620625,1,3.07,N,VALDOSTA,30.8745,-83.2688,3052470,8316128
1011,201604,103644,620627,1,3.49,NNE,REMERTON,30.883000000000003,-83.2791,3052980,8316746
1012,201604,103644,620628,1,1.41,NNE,COURTHOUSE,31.0987,-83.0106,315922,83636
1013,201604,103644,620629,1,1.93,WNW,(VLD)VALDOSTA REGIONAL ARPT,30.7836,-83.2984,3047016,8317904
1014,201604,103644,620630,1,1.33,S,TEETERVILLE,31.0909,-83.1373,315454,838238
1015,201604,103644,620631,1,2.73,NW,I-75 AT EXIT 5,30.71,-83.25,3042600,8315000
1016,201604,103644,620633,1,2.85,WSW,STOCKTON,30.9074,-83.0302,3054444,831812
1017,201604,103647,619460,1,0.69,N,LEXINGTON,33.13,-90.05,337800,903000
1018,201604,103647,619462,1,3.58,NNE,GOODEN LAKE,33.1805,-90.6067,3310830,9036402
1019,201604,103647,619467,1,0.76,SSE,BELZONI MUNI ARPT,33.1398,-90.5153,338388,9030918
1020,201604,103647,619468,1,0.9,NE,BEATTY,33.28,-89.74,3316800,8944400
1021,201604,103647,619469,1,1.5,SSE,VICKSBURG,32.33,-90.87,3219800,9052200
1022,201604,103647,619476,1,3.12,SE,SATARTIA,32.64,-90.51,3238400,9030600
1023,201604,103647,619477,1,1.44,ENE,BENTON,32.8343,-90.2458,3250058,9014748
1024,201604,103647,619478,1,1.38,N,BENTONIA,32.65,-90.37,3239000,9022200
1025,201604,103647,619478,2,2.76,S,DOVER,32.66,-90.32,3239600,9019200
1026,201604,103647,619479,1,4.97,SSW,MC COOL,33.13,-89.37,337800,8922200
1027,201604,103647,619480,1,0.49,NW,POCAHONTAS,32.4744,-90.2866,3228464,9017196
1028,201604,103647,619480,2,0.98,ENE,POCAHONTAS,32.4763,-90.2649,3228578,9015894
1029,201604,103647,619481,1,1.16,W,OFAHOMA,32.7,-89.72,3242000,8943200
1030,201604,103647,619482,1,0.69,N,CARTHAGE,32.74,-89.53,3244400,8931800
1031,201604,103647,619483,1,1.17,W,GLUCKSTADT,32.52,-90.1,3231200,906000
1032,201604,103647,619484,1,1.74,N,JACKSON,32.3549,-90.1742,3221294,9010452
1033,201604,103647,619485,1,0.4,NNW,STARKVILLE,33.4755,-88.8323,3328530,8849938
1034,201604,103647,619485,2,0.28,NNW,STARKVILLE,33.4735,-88.8325,3328410,8849950
1035,201604,103647,619485,3,0.24,N,STARKVILLE,33.4735,-88.8297,3328410,8849782
1036,201604,103647,619485,4,0.34,N,STARKVILLE,33.475,-88.8302,3328500,8849812
1037,201604,103647,619486,1,2.71,NE,LUCKNEY,32.38,-90.04,3222800,902400
1038,201604,103647,619487,1,1.88,WSW,GULDE,32.29,-89.88,3217400,8952800
1039,201604,103647,619487,2,1.37,WSW,GULDE,32.293,-89.87200000000001,3217580,8952320
1040,201604,103647,619487,3,1.47,W,GULDE,32.298,-89.875,3217880,8952500
1041,201604,103647,619487,4,1.68,W,GULDE,32.2962,-89.8785,3217772,8952710
1042,201604,103647,619488,1,1.58,SSE,LEBANON,32.15,-90.5069,329000,9030414
1043,201604,103647,619489,1,0.69,N,CLINTON,32.34,-90.33,3220400,9019800
1044,201604,103647,619490,1,0.9,SE,MORTON,32.34,-89.66,3220400,8939600
1045,201604,103647,619491,1,0.69,W,PISGAH,32.4708,-89.8817,3228248,8952902
1046,201604,103647,619492,1,2.38,SSE,PELAHATCHIE,32.29,-89.78,3217400,8946800
1047,201604,103647,619495,1,2.85,N,PELAHATCHIE,32.3609,-89.7939,3221654,8947634
1048,201604,103647,619496,1,0.6,S,ROOK HILL,32.1714,-89.9283,3210284,8955698
1049,201604,103647,619499,1,1.38,N,RICE HILL,32.29,-90.03,3217400,901800
1050,201604,103647,619502,1,1.88,WNW,CROSS ROADS,32.26,-89.8,3215600,8948000
1051,201604,103647,619505,1,0.91,NE,POLKVILLE,32.19,-89.69,3211400,8941400
1052,201604,103647,619630,1,2.78,WNW,LANGFORD,32.3655,-90.014,3221930,90840
1053,201604,103647,619630,2,2.95,WNW,LANGFORD,32.3657,-90.01700000000001,3221942,901020
1054,201604,103647,619630,3,2.91,WNW,LANGFORD,32.3647,-90.0168,3221882,901008
1055,201604,103647,619630,4,2.78,WNW,LANGFORD,32.3632,-90.0149,3221792,90894
1056,201604,103647,619630,5,2.72,WNW,LANGFORD,32.364000000000004,-90.0136,3221840,90816
1057,201604,103647,619633,1,0.8,SE,WEST JACKSON,32.3127,-90.1893,3218762,9011358
1058,201604,103647,619633,2,0.89,SE,WEST JACKSON,32.3117,-90.1883,3218702,9011298
1059,201604,103647,619633,3,0.92,SE,WEST JACKSON,32.3118,-90.1875,3218708,9011250
1060,201604,103647,619633,4,0.89,SE,WEST JACKSON,32.3126,-90.1875,3218756,9011250
1061,201604,103647,619634,1,2.6,S,LONGALOO,32.3629,-90.1428,3221774,908568
1062,201604,103647,619634,2,2.69,NE,JACKSON,32.3613,-90.1427,3221678,908562
1063,201604,103647,619634,3,2.74,SSE,LONGALOO,32.3612,-90.1405,3221672,908430
1064,201604,103647,619634,4,2.61,S,LONGALOO,32.363,-90.1416,3221780,908496
1065,201604,103647,619635,1,2.52,WSW,LUCKNEY,32.3337,-90.1086,3220022,906516
1066,201604,103647,619635,2,2.55,WSW,LUCKNEY,32.3328,-90.1086,3219968,906516
1067,201604,103647,619635,3,2.5,WSW,LUCKNEY,32.3327,-90.1075,3219962,906450
1068,201604,103647,619635,4,2.44,WSW,LUCKNEY,32.3339,-90.1071,3220034,906426
1069,201604,103647,619636,1,2.23,SW,PINEVILLE,32.11,-89.43,326600,8925800
1070,201604,103647,619637,1,1.62,ENE,BRANDON,32.2829,-89.9568,3216974,8957408
1071,201609,108407,649320,1,0.33,NE,BATESVILLE,39.3039,-85.2166,3918234,8512996
1072,201604,103349,617673,1,1.58,W,SERGEANTSVILLE,40.45,-74.96,4027000,7457600
1073,201604,103350,617676,1,0.69,N,LEWES DE,38.78,-75.15,3846800,759000
1074,201604,103350,617678,1,17.41,N,BOWERS BEACH DE,39.3,-75.38,3918000,7522800
1075,201604,103350,617679,1,8.62,W,NORTH CAPE MAY,38.99,-75.11,3859400,756600
1076,201604,103350,617682,1,4.27,WSW,BEACH HAVEN,39.52,-74.32,3931200,7419200
1077,201604,103350,617684,1,1.48,NNW,BRANT BEACH,39.64,-74.21,3938400,7412600
1078,201604,103351,618160,1,0.53,W,NEWARK,39.68,-75.76,3940800,7545600
1079,201604,103351,618173,1,0.69,N,DUNLEITH,39.73,-75.53,3943800,7531800
1080,201604,103351,618174,1,1.07,E,MIDDLETOWN,39.45,-75.71,3927000,7542600
1081,201604,103351,618175,1,0.87,NE,ODESSA,39.46,-75.66,3927600,7539600
1082,201604,103351,618179,1,0.69,N,BRIDGEVILLE,38.74,-75.6,3844400,7536000
1083,201604,103351,618272,1,0.0,N,LAUREL,38.55,-75.57,3833000,7534200
1084,201604,103351,618273,1,0.88,NW,GEORGETOWN,38.69,-75.39,3841400,7523400
1085,201604,103351,618275,1,0.54,E,OAK ORCHARD,38.6,-75.17,3836000,7510200
1086,201604,103351,619058,1,0.72,ESE,DOVER,39.1665,-75.5173,399990,7531038
1087,201604,103352,618121,1,2.45,WNW,HAYDEN,39.0948,-76.0215,395688,761290
1088,201604,103353,618276,1,0.69,N,LEWES DE,38.78,-75.15,3846800,759000
1089,201604,103353,618277,1,0.54,W,DEWEY BEACH,38.7,-75.08,3842000,754800
1090,201604,103353,618375,1,0.54,W,DEWEY BEACH,38.7,-75.08,3842000,754800
1091,201604,103353,618376,1,3.76,W,PT. PLEASANT,40.07,-74.12,404200,747200
1092,201604,103353,618377,1,2.32,SSW,SEA BRIGHT,40.34,-73.99,4020400,7359400
1093,201604,103353,618378,1,1.74,NE,BELMAR,40.2,-74.01,4012000,74600
1094,201604,103353,618379,1,8.62,W,NORTH CAPE MAY,38.99,-75.11,3859400,756600
1095,201604,103353,618384,1,3.49,N,SEA BRIGHT,40.42,-73.98,4025200,7358800
1096,201604,103353,618385,1,4.87,S,PT. PLEASANT,40.01,-74.06,40600,743600
1097,201604,103353,618386,1,0.88,SW,NORTH CAPE MAY,38.97,-74.96,3858200,7457600
1098,201604,103353,618387,1,17.41,N,BOWERS BEACH DE,39.3,-75.38,3918000,7522800
1099,201604,103353,618388,1,0.0,N,MANASQUAN,40.12,-74.03,407200,741800
1100,201609,108407,649320,2,0.45,NE,BATESVILLE,39.3049,-85.2144,3918294,8512864
1101,201609,108407,649320,3,0.43,NE,BATESVILLE,39.3035,-85.2134,3918210,8512804
1102,201607,105598,653152,1,2.52,E,LITTLETOWN,32.1246,-110.8273,327476,11049638
1103,201607,105598,653152,2,7.44,ENE,LITTLETOWN,32.171,-110.7525,3210260,11045150
1104,201607,105598,653152,3,3.01,N,SABINO,32.343,-110.8287,3220580,11049722
1105,201607,105598,653152,4,0.32,SW,CORTARO,32.3472,-111.0845,3220832,1115070
1106,201607,105598,653152,5,2.22,SW,DREXEL HGTS,32.1536,-111.0416,329216,1112496
1107,201607,105598,654483,1,0.0,N,BENSON,31.97,-110.3,3158200,11018000
1108,201603,102990,615361,1,1.51,SSE,JUPITER INLET,26.91,-80.07,2654600,804200
1109,201603,102990,615362,1,2.96,SSE,JUPITER INLET,26.8935,-80.055,2653610,803300
1110,201603,102990,615363,1,1.57,ENE,PORT EVERGLADES,26.1093,-80.1069,266558,806414
1111,201607,105647,633793,1,0.69,N,WALSH,37.39,-102.28,3723400,10216800
1112,201607,105647,633794,1,2.12,NNW,SECURITY,38.7759,-104.7612,3846554,10445672
1113,201607,105647,633794,2,2.35,SSW,(COS)COLORADO SPGS ARPT,38.7779,-104.7148,3846674,10442888
1114,201607,105647,633794,3,1.59,ESE,WIDEFIELD,38.7305,-104.7031,3843830,10442186
1115,201607,105647,633794,4,0.57,SSW,WIDEFIELD,38.7322,-104.7334,3843932,10444004
1116,201603,102990,615364,1,3.94,ENE,BUCKHEAD RIDGE,27.14,-80.79,278400,8047400
1117,201603,102990,615365,1,9.72,SSE,PORT OF PALM BEACH,26.6128,-80.035,2636768,802100
1118,201603,102990,615373,1,14.81,S,BOCA RATON,26.1168,-80.1039,267008,806234
1119,201603,102991,615367,1,0.0,N,TEQUESTA,26.9,-80.1,2654000,806000
1120,201603,102991,615368,1,2.82,WNW,JUPITER,26.95,-80.14,2657000,808400
1121,201603,102991,615370,1,1.86,ENE,PORT EVERGLADES,26.1145,-80.1047,266870,806282
1122,201603,102991,615370,2,1.86,ESE,FT LAUDERDALE,26.1168,-80.1039,267008,806234
1123,201603,103019,615473,1,0.0,N,BANDON,43.12,-124.42,437200,12425200
1124,201603,103019,615473,2,1.51,W,MYRTLE PT,43.07,-124.16,434200,1249600
1125,201603,103019,615473,3,1.51,E,NORWAY,43.1,-124.12,436000,1247200
1126,201603,103019,615473,4,0.5,E,COALEDO,43.23,-124.22,4313800,12413200
1127,201603,103019,615473,5,0.86,NW,BULLARDS,43.16,-124.41,439600,12424600
1128,201603,103023,616084,1,16.28,W,BROOKINGS,42.0289,-124.596,421734,12435760
1129,201603,103023,616084,2,13.97,W,PORT ORFORD,42.7833,-124.7717,4246998,12446302
1130,201603,103023,616085,1,18.59,WNW,DENMARK,42.88399999999999,-124.8596,4253040,12451576
1131,201603,103023,616085,2,19.4,W,BANDON,43.117,-124.8047,437020,12448282
1132,201603,103023,616137,1,5.12,SSW,CAPE FERRELO,42.033,-124.3927,421980,12423562
1133,201603,103023,616137,2,3.33,WSW,PORT ORFORD,42.7268,-124.5575,4243608,12433450
1134,201603,103023,616138,1,18.46,SSW,COQUILLE RIVER LIGHTHOUSE,42.88,-124.5905,4252800,12435430
1135,201607,105598,654483,2,0.87,SSW,BENSON,31.9589,-110.3072,3157534,11018432
1136,201607,105598,654483,3,1.47,SSE,BENSON,31.9513,-110.2879,3157078,11017274
1137,201607,105598,654483,4,0.72,ESE,BENSON,31.9662,-110.2886,3157972,11017316
1138,201607,105608,633558,1,0.96,S,ESTELLINE,34.5361,-100.4302,3432166,10025812
1139,201607,105608,633558,2,1.04,WNW,NEWLIN,34.5869,-100.4463,3435214,10026778
1140,201607,105608,633563,1,0.54,SSW,NORTHFIELD,34.273,-100.6045,3416380,10036270
1141,201607,105608,633564,1,2.82,NNW,QUITAQUE,34.41,-101.06,3424600,1013600
1142,201607,105608,633565,1,3.17,WSW,TURKEY,34.38,-100.93,3422800,10055800
1143,201607,105631,633726,1,9.14,NE,PLAYALINDA BEACH,28.63,-80.66,2837800,8039600
1144,201607,105642,633780,1,2.5,N,FRIONA BENGER ARPK,34.6855,-102.6717,3441130,10240302
1145,201607,105642,633780,2,0.57,W,FRIONA BENGER ARPK,34.65,-102.69,3439000,10241400
1146,201607,105647,633792,1,5.62,WNW,CEDARWOOD,37.95,-104.72,3757000,10443200
1147,201604,103812,620780,1,7.46,WSW,UMPQUA RIVER LIGHTHOUSE,43.6202,-124.3323,4337212,12419938
1148,201604,103812,620780,2,14.98,SSW,COQUILLE RIVER LIGHTHOUSE,42.9283,-124.5685,4255698,12434110
1149,201604,103812,620781,1,3.07,W,CAPE FERRELO,42.1064,-124.4092,426384,12424552
1150,201604,103812,620781,2,3.42,SW,PORT ORFORD,42.7107,-124.541,4242642,12432460
1151,201604,103812,620782,1,16.1,W,PORT ORFORD,42.7268,-124.8157,4243608,12448942
1152,201604,103812,620782,2,17.21,SW,GOLD BEACH,42.086000000000006,-124.6729,425160,12440374
1153,201604,103812,620783,1,18.69,WNW,LAKESIDE,43.6524,-124.53,4339144,12431800
1154,201604,103812,620783,2,15.98,WNW,DENMARK,42.9407,-124.7772,4256442,12446632
1155,201604,103815,620816,1,0.69,N,BLUE EARTH,43.64,-94.1,4338400,946000
1156,201604,103815,620817,1,0.85,SE,NEW RICHLAND,43.89,-93.49,4353400,9329400
1157,201604,103844,621047,1,1.0,NNW,NEWPORT,48.1934,-117.0583,4811604,1173498
1158,201604,103856,621147,1,0.0,N,CROOKSVILLE,39.77,-82.1,3946200,826000
1159,201604,103856,621150,1,2.0,SW,DYESVILLE,39.0995,-82.2564,395970,8215384
1160,201604,103856,621152,1,0.67,SW,FIVE PTS,39.0445,-81.9803,392670,8158818
1161,201604,103856,621166,1,0.0,N,MC CONNELSVILLE,39.65,-81.85,3939000,8151000
1162,201604,103858,621168,1,0.87,SE,PARKERSBURG,39.26,-81.54,3915600,8132400
1163,201604,103858,621169,1,0.0,N,HARRISVILLE,39.2,-81.05,3912000,813000
1164,201604,103858,621177,1,0.0,N,TROY,39.02,-80.77,391200,8046200
1165,201604,103858,621178,1,0.0,N,AUBURN,39.1,-80.85,396000,8051000
1166,201604,103858,621187,1,2.37,NE,FINSTER,38.9503,-80.5345,3857018,8032070
1167,201604,103858,621198,1,0.48,E,BRISCOE,39.3506,-81.5211,3921036,8131266
1168,201604,103858,621198,2,1.22,WSW,WILLIAMSTOWN,39.3937,-81.4714,3923622,8128284
1169,201604,103858,621198,3,0.32,NNE,WILLIAMSTOWN,39.4046,-81.4488,3924276,8126928
1170,201604,103858,621198,4,1.3,ESE,WILLIAMSTOWN,39.3915,-81.4284,3923490,8125704
1171,201604,103355,618125,1,1.27,ESE,SHILOH,39.46,-75.28,3927600,7516800
1172,201604,103355,618125,2,0.69,S,BRIDGETON BUCKS ARPT,39.46,-75.18,3927600,7510800
1173,201604,103355,618153,1,0.87,SW,RARITAN,40.57,-74.64,4034200,7438400
1174,201604,103355,618153,2,1.05,W,CLYDE,40.48,-74.54,4028800,7432400
1175,201604,103355,618177,1,0.0,N,NEWPORT,39.3,-75.18,3918000,7510800
1176,201604,103355,618178,1,0.0,N,NEWPORT,39.3,-75.18,3918000,7510800
1177,201604,103355,618180,1,1.27,ENE,WILLIAMSTOWN,39.69,-74.98,3941400,7458800
1178,201604,103355,618181,1,0.69,S,LAWRENCEVILLE,40.29,-74.73,4017400,7443800
1179,201604,103355,618274,1,0.69,N,SOUTH DENNIS,39.19,-74.83,3911400,7449800
1180,201604,103355,618278,1,0.69,S,PT PLEASANT BEACH,40.09,-74.05,405400,743000
1181,201604,103355,618279,1,0.0,N,LAURELTON,40.07,-74.12,404200,747200
1182,201604,103355,618559,1,3.59,NNW,RIVIERA BEACH,40.1504,-74.0961,409024,745766
1183,201604,103356,618154,1,0.87,SE,WEST CHESTER,39.96,-75.61,3957600,7536600
1184,201604,103356,618155,1,0.0,N,EAST LANSDOWNE,39.93,-75.27,3955800,7516200
1185,201604,103356,618176,1,0.53,E,(PNE)NE ARPT PHILADE,40.08,-75.01,404800,75600
1186,201604,103437,618182,1,4.0,WNW,ADDY,48.3722,-117.9105,4822332,11754630
1187,201604,103446,618209,1,7.0,SE,GLEN,45.3984,-112.6179,4523904,11237074
1188,201604,103446,618210,1,8.0,W,TOWNSEND,46.32,-111.6877,4619200,11141262
1189,201604,103446,618211,1,3.0,SSE,BOZEMAN,45.6399,-111.0062,4538394,111372
1190,201604,103496,618811,1,2.11,SE,ATGLEN,39.93,-75.94,3955800,7556400
1191,201604,103496,618813,1,0.69,N,SOUTH EASTON,40.69,-75.22,4041400,7513200
1192,201604,103496,618816,1,1.38,S,EAST STROUDSBURG,41.0,-75.18,4100,7510800
1193,201604,103497,618820,1,0.52,W,HACKETTSTOWN,40.85,-74.83,4051000,7449800
1194,201604,103497,618840,1,1.74,NE,JENKINS,39.72,-74.51,3943200,7430600
1195,201604,103498,618825,1,0.69,S,CENTREVILLE,39.04,-76.07,392400,764200
1196,201604,103499,618837,1,0.87,SE,MARYDEL,39.11,-75.74,396600,7544400
1197,201604,103499,618839,1,0.0,N,KENTON,39.23,-75.67,3913800,7540200
1198,201604,103527,618798,1,4.54,NNE,WARSAW,38.311,-93.34899999999999,3818660,9320940
1199,201604,103527,618798,2,4.83,NNE,WARSAW,38.3146,-93.3462,3818876,9320772
1200,201604,103527,618798,3,4.87,NNE,WARSAW,38.3146,-93.3441,3818876,9320646
1201,201604,103527,618798,4,4.45,NNE,WARSAW,38.3097,-93.3493,3818582,9320958
1202,201604,103527,618799,1,2.34,SSW,MORA,38.49,-93.24,3829400,9314400
1203,201604,103527,618800,1,2.79,WNW,COLE CAMP,38.48,-93.25,3828800,9315000
1204,201604,103527,618801,1,2.34,SSW,MORA,38.49,-93.24,3829400,9314400
1205,201604,103527,618802,1,0.69,S,APPLETON CITY,38.19,-94.03,3811400,941800
1206,201604,103527,618803,1,1.77,ESE,APPLETON CITY,38.19,-94.0,3811400,9400
1207,201604,103527,618804,1,4.18,N,STOVER,38.51,-92.99,3830600,9259400
1208,201604,103527,618805,1,0.88,SE,DIXON,37.99,-92.09,3759400,925400
1209,201604,103527,618806,1,0.0,N,HIGHLANDVILLE,36.93,-93.28,3655800,9316800
1210,201604,103528,618807,1,0.0,N,MC CUNE,37.35,-95.02,3721000,951200
1211,201604,103544,618852,1,0.69,N,LEWES DE,38.78,-75.15,3846800,759000
1212,201604,103544,618853,1,17.41,N,BOWERS BEACH DE,39.3,-75.38,3918000,7522800
1213,201604,103544,618855,1,8.62,W,NORTH CAPE MAY,38.99,-75.11,3859400,756600
1214,201604,103544,618878,1,1.28,ENE,CAPE MAY,38.94,-74.9,3856400,7454000
1215,201604,103544,618881,1,5.48,SE,BARNEGAT INLET,39.7,-74.14,3942000,748400
1216,201604,103560,619105,1,0.9,NE,NEW HOME,33.33,-101.91,3319800,10154600
1217,201604,103560,619108,1,2.41,WNW,SLATON,33.44,-101.69,3326400,10141400
1218,201604,103560,619111,1,1.38,S,SLATON MUNI ARPT,33.46,-101.67,3327600,10140200
1219,201604,103560,619112,1,2.21,SW,OWENS,33.55,-101.38,3333000,10122800
1220,201604,103560,619112,2,1.5,NNE,OWENS,33.59,-101.34,3335400,10120400
1221,201604,103560,619115,1,1.59,W,DICKENS,33.6191,-100.8576,3337146,10051456
1222,201604,103560,619115,2,0.36,NE,DICKENS,33.6242,-100.8262,3337452,10049572
1223,201604,103560,619119,1,0.69,N,HALFWAY,34.19,-101.95,3411400,10157000
1224,201604,103560,619119,2,0.57,E,EDMONSON,34.28,-101.89,3416800,10153400
1225,201604,103560,619122,1,0.0,N,KRESS,34.37,-101.75,3422200,10145000
1226,201604,103560,619123,1,5.14,NNE,GUTHRIE 6666 ARPT,33.7,-100.32,3342000,10019200
1227,201604,103560,619124,1,9.12,E,KRESS,34.37,-101.59,3422200,10135400
1228,201604,103560,619126,1,0.9,NE,HART,34.39,-102.11,3423400,1026600
1229,201604,103560,619128,1,0.0,N,LAKEVIEW,34.67,-100.7,3440200,10042000
1230,201604,103647,619638,1,0.9,NE,MERIDIAN,32.38,-88.71,3222800,8842600
1231,201604,103647,619638,2,0.93,NNE,MARION,32.4329,-88.6455,3225974,8838730
1232,201604,103647,619639,1,2.15,NNE,TOOMSUBA,32.45,-88.51,3227000,8830600
1233,201604,103647,619640,1,1.24,ENE,BAY SPGS,31.9742,-89.2794,3158452,8916764
1234,201604,103647,619641,1,1.13,SE,LOUIN,32.0665,-89.2189,323990,8913134
1235,201604,103647,619642,1,1.44,NW,QUITMAN CLARK CO ARP,32.0951,-88.7469,325706,8844814
1236,201604,103647,619643,1,0.58,E,PONTA,32.55,-88.62,3233000,8837200
1237,201604,103647,619644,1,0.0,N,VALUE,32.28,-90.0,3216800,9000
1238,201604,103647,619644,2,0.54,SSE,VALUE,32.2723,-89.9981,3216338,8959886
1239,201604,103647,619644,3,0.21,WNW,BRANDON,32.2716,-89.9831,3216296,8958986
1240,201604,103647,619644,4,0.49,N,BRANDON,32.2771,-89.9793,3216626,8958758
1241,201604,103647,619645,1,1.13,NNE,BOLTON,32.3659,-90.4659,3221954,9027954
1242,201604,103647,619645,2,0.77,N,BOLTON,32.3611,-90.4688,3221666,9028128
1243,201604,103647,619645,3,0.84,NNE,BOLTON,32.3615,-90.4653,3221690,9027918
1244,201604,103647,619645,4,0.99,NNE,BOLTON,32.3632,-90.4634,3221792,9027804
1245,201604,103647,619646,1,2.07,N,SHERWOOD,33.51,-89.13,3330600,897800
1246,201604,103647,619646,2,2.32,N,SHERWOOD,33.5136,-89.1303,3330816,897818
1247,201604,103647,619646,3,2.29,N,SHERWOOD,33.5129,-89.1253,3330774,897518
1248,201604,103647,619646,4,2.15,N,SHERWOOD,33.5109,-89.1257,3330654,897542
1249,201604,103647,619647,1,2.35,ESE,LAKELAND,32.2108,-90.1314,3212648,907884
1250,201604,103647,619647,2,2.36,ESE,LAKELAND,32.2094,-90.1316,3212564,907896
1251,201604,103647,619647,3,2.51,ESE,LAKELAND,32.2098,-90.1288,3212588,907728
1252,201604,103647,619647,4,2.47,ESE,LAKELAND,32.2114,-90.12899999999999,3212684,907740
1253,201604,103647,619648,1,2.58,NE,LUCKNEY,32.3714,-90.0338,3222284,902028
1254,201604,103647,619648,2,2.6,NE,LUCKNEY,32.371,-90.0331,3222260,901986
1255,201604,103647,619648,3,2.63,NE,LUCKNEY,32.3718,-90.03299999999999,3222308,901980
1256,201604,103647,619648,4,2.61,NE,LUCKNEY,32.3721,-90.0337,3222326,902022
1257,201604,103647,619649,1,1.5,SSE,GREENFIELD,32.23,-90.04,3213800,902400
1258,201604,103647,619649,2,1.57,SSE,GREENFIELD,32.2281,-90.04299999999999,3213686,902580
1259,201604,103647,619649,3,1.3,SSE,GREENFIELD,32.2316,-90.0456,3213896,902736
1260,201604,103647,619649,4,1.14,SSE,GREENFIELD,32.2353,-90.0412,3214118,902472
1261,201604,103647,619652,1,1.5,SSE,VICKSBURG,32.33,-90.87,3219800,9052200
1262,201604,103647,619652,2,1.08,SSE,VICKSBURG,32.3353,-90.8737,3220118,9052422
1263,201604,103647,619652,3,1.28,SE,VICKSBURG,32.3359,-90.8657,3220154,9051942
1264,201604,103647,619652,4,1.73,SE,VICKSBURG,32.3297,-90.8629,3219782,9051774
1265,201604,103647,619654,1,1.85,ESE,REDWOOD,32.468,-90.7917,3228080,9047502
1266,201604,103647,619654,2,1.83,ESE,REDWOOD,32.466,-90.7933,3227960,9047598
1267,201604,103647,619654,3,2.27,ESE,REDWOOD,32.4677,-90.7838,3228062,9047028
1268,201604,103647,619654,4,2.15,ESE,REDWOOD,32.47,-90.7851,3228200,9047106
1269,201604,103647,619655,1,0.69,S,BEECHWOOD,32.32,-90.83,3219200,9049800
1270,201604,103647,619655,2,0.38,S,BEECHWOOD,32.3246,-90.829,3219476,9049740
1271,201604,103647,619655,3,0.34,SE,BEECHWOOD,32.326,-90.8268,3219560,9049608
1272,201604,103647,619655,4,0.51,SE,BEECHWOOD,32.324,-90.825,3219440,9049500
1273,201604,103647,619656,1,0.2,S,NATIONAL CEMETERY,32.3771,-90.8698,3222626,9052188
1274,201604,103647,619656,2,0.42,SSW,NATIONAL CEMETERY,32.3741,-90.8717,3222446,9052302
1275,201604,103647,619656,3,0.41,S,NATIONAL CEMETERY,32.3741,-90.8706,3222446,9052236
1276,201604,103647,619656,4,0.21,S,NATIONAL CEMETERY,32.3769,-90.8694,3222614,9052164
1277,201604,103647,619658,1,1.35,WSW,GOODMAN,32.96,-89.92,3257600,8955200
1278,201604,103647,619677,1,1.02,N,RICE HILL,32.2847,-90.0278,3217082,901668
1279,201604,103647,619716,1,0.06,W,LORENA,32.1799,-89.5211,3210794,8931266
1280,201604,103647,619716,2,3.27,N,SYLVARENA,32.0664,-89.3907,323984,8923442
1281,201604,103647,621458,1,2.87,NW,RICE HILL,32.2943,-90.0699,3217658,904194
1282,201604,103647,623333,1,0.9,NE,BELZONI,33.19,-90.49,3311400,9029400
1283,201604,103662,619547,1,1.73,W,SPUR,33.48,-100.88,3328800,10052800
1284,201604,103662,619547,2,1.26,WNW,SPUR,33.4852,-100.87100000000001,3329112,10052260
1285,201604,103662,619551,1,7.61,N,CLAIREMONT,33.2781,-100.7754,3316686,10046524
1286,201604,103662,619551,2,7.7,N,CLAIREMONT,33.2796,-100.7745,3316776,10046470
1287,201604,103662,619552,1,2.15,NNW,SPUR,33.51,-100.86,3330600,10051600
1288,201604,103662,619553,1,1.38,S,DUMONT,33.8,-100.52,3348000,10031200
1289,201604,103662,619554,1,1.38,S,DUMONT,33.8,-100.52,3348000,10031200
1290,201604,103662,619555,1,2.34,E,FINNEY,33.7809,-100.3393,3346854,10020358
1291,201604,103662,619555,2,1.12,SW,GROW,33.8109,-100.3363,3348654,10020178
1292,201604,103662,619558,1,5.02,S,SOUTH PLAINS,34.1478,-101.3099,348868,10118594
1293,201604,103662,619558,2,5.03,S,SOUTH PLAINS,34.1477,-101.3095,348862,10118570
